,0,City,Latitude,Longitude,ID,Temperature,Humidity,Cloudiness,Wind Speed (mph)
0,saint-joseph,saint-joseph,-21.3667,55.6167,6690296,70.3,83,90,10.36
1,peterhead,peterhead,57.5058,-1.7981,2640351,41.45,93,58,2.3
2,san patricio,san patricio,28.017,-97.5169,4726521,71.53,83,90,16.11
3,vaini,vaini,-21.2,-175.2,4032243,86,79,75,6.91
4,roebourne,roebourne,-20.7833,117.1333,2062276,81.84,21,0,17.87
5,mango,mango,27.9797,-82.3065,4163318,72.5,56,1,4.61
6,gusau,gusau,12.1628,6.6614,2339937,87.22,35,11,6.13
7,mahebourg,mahebourg,-20.4081,57.7,934322,75.2,94,75,18.41
8,albany,albany,42.6001,-73.9662,5106841,38.12,49,17,13.09
9,bredasdorp,bredasdorp,-34.5322,20.0403,1015776,50,93,6,2.3
10,taolanaro,taolanaro,,,,,,,
11,ballaghaderreen,ballaghaderreen,53.9,-8.5833,2966784,45,62,94,1.99
12,caravelas,caravelas,-17.7125,-39.2481,3466980,72.68,89,86,4.54
13,kijang,kijang,35.2442,129.2139,1842966,64.4,45,0,14.97
14,bandarbeyla,bandarbeyla,9.4942,50.8122,64814,81.55,76,83,0.29
15,puerto ayora,puerto ayora,-0.7393,-90.3518,3652764,77,94,45,5.01
16,kapaa,kapaa,22.0752,-159.319,5848280,79.14,65,1,11.5
17,atuona,atuona,-9.8,-139.0333,4020109,80.65,78,82,19.82
18,busselton,busselton,-33.65,115.3333,2075265,65.07,57,17,7.02
19,severo-kurilsk,severo-kurilsk,50.6789,156.125,2121385,36.36,91,80,3.71
20,bow island,bow island,49.8668,-111.3684,5906757,34.12,55,100,14.97
21,tura,tura,25.5198,90.2201,1254046,75.9,52,0,2.28
22,castro,castro,-24.7911,-50.0119,3466704,53.83,91,20,3.51
23,tutoia,tutoia,-2.7619,-42.2744,3385899,78.49,80,100,3.8
24,hamilton,hamilton,39.1834,-84.5333,4513583,47.61,30,1,6.91
25,norsup,norsup,-16.0667,167.3833,2135517,85.78,68,26,11.25
26,karachi,karachi,24.9056,67.0822,1174872,80.6,83,40,11.5
27,hermanus,hermanus,-34.4187,19.2345,3366880,57.99,87,0,1.01
28,novokruchininskiy,novokruchininskiy,51.7833,113.7667,2018925,33.8,25,100,13.42
29,alexandria,alexandria,31.2156,29.9553,361058,60.8,82,0,6.91
30,attawapiskat,attawapiskat,,,,,,,
31,kulunda,kulunda,52.566,78.9385,1501460,32.9,61,0,9.71
32,whitehorse,whitehorse,60.7161,-135.0538,6180550,44.29,26,1,4.61
33,charters towers,charters towers,-20.1,146.2667,2171722,66.22,94,100,8.28
34,bluff,bluff,-46.6,168.3333,2206939,57,74,100,8.99
35,nouadhibou,nouadhibou,20.931,-17.0347,2377457,64.4,82,0,17.27
36,provideniya,provideniya,64.3833,-173.3,4031574,41,48,0,11.18
37,kincardine,kincardine,56.0667,-3.7167,2645525,40.57,93,0,1.14
38,bremerton,bremerton,47.5673,-122.6326,5788054,61.66,55,40,9.22
39,cabo san lucas,cabo san lucas,22.8909,-109.9124,3985710,78.22,29,20,12.66
40,upernavik,upernavik,72.7868,-56.1549,3418910,17.29,90,100,4.52
41,ushuaia,ushuaia,-54.8,-68.3,3833367,42.8,87,75,12.66
42,cidreira,cidreira,-30.1811,-50.2056,3466165,69.78,73,6,15.64
43,la ronge,la ronge,55.1001,-105.2842,6050066,26.6,43,100,13.8
44,rikitea,rikitea,-23.1203,-134.9692,4030556,78.01,76,100,13.85
45,broome,broome,42.2506,-75.833,5110365,32.43,86,90,8.05
46,tuktoyaktuk,tuktoyaktuk,69.4541,-133.0374,6170031,12.2,73,75,5.75
47,punta arenas,punta arenas,-53.15,-70.9167,3874787,46.2,93,75,5.75
48,grand river south east,grand river south east,,,,,,,
49,adrar,adrar,20.5022,-10.0711,2381972,76.23,13,0,11.23
50,butaritari,butaritari,3.0707,172.7902,2110227,82.6,74,95,9.95
51,kodiak,kodiak,57.79,-152.4072,5866583,42.8,93,90,10.36
52,hambantota,hambantota,6.1241,81.1185,1244926,77,100,20,4.61
53,muros,muros,42.7762,-9.0603,3115824,50.13,92,100,5.86
54,tigbinan,tigbinan,14.1865,122.4692,1682219,83.62,70,68,5.06
55,te anau,te anau,-45.4167,167.7167,2181625,54.03,72,100,7.47
56,malmesbury,malmesbury,-33.4608,18.7271,3364346,56.17,100,90,14.97
57,jumla,jumla,29.2747,82.1838,1283285,40.39,68,1,5.14
58,puerto madryn,puerto madryn,-42.7692,-65.0385,3840092,58.06,72,0,8.16
59,roma,roma,43.2128,-75.4557,5134295,36.7,48,75,18.41
60,avarua,avarua,-21.2078,-159.775,4035715,82.4,69,75,21.85
61,kirovskiy,kirovskiy,45.0917,133.5136,2022064,60.66,28,100,7.47
62,mar del plata,mar del plata,-38.0023,-57.5575,3430863,66.56,88,0,3.44
63,port hedland,port hedland,-20.3167,118.5667,2063042,80.6,17,0,16.11
64,ostrovnoy,ostrovnoy,68.0531,39.5131,556268,31.24,96,88,9.15
65,huntsville,huntsville,34.7304,-86.5861,4068590,55.71,36,1,4.61
66,ribeira grande,ribeira grande,38.5167,-28.7,3372707,57.67,74,12,35.81
67,norman wells,norman wells,65.282,-126.8329,6089245,28.4,59,75,11.5
68,hobart,hobart,-42.8794,147.3294,2163355,54.59,44,75,19.57
69,isangel,isangel,-19.55,169.2667,2136825,86,74,75,5.75
70,port maria,port maria,18.3685,-76.8895,3488985,75.58,89,0,4
71,lazaro cardenas,lazaro cardenas,17.9583,-102.2,4026082,79.41,50,100,7.38
72,tiksi,tiksi,71.6872,128.8694,2015306,16.2,83,100,4.12
73,alashtar,alashtar,,,,,,,
74,el prat de llobregat,el prat de llobregat,41.3278,2.0947,3123329,53.31,87,20,3.44
75,fortuna,fortuna,40.5982,-124.1573,5563839,54.25,76,1,14.97
76,port elizabeth,port elizabeth,-33.918,25.5701,964420,64.4,88,0,13.8
77,mataura,mataura,-46.1927,168.8643,6201424,57,74,100,8.99
78,vaitape,vaitape,-16.5167,-151.75,4033077,81.07,73,9,14.41
79,ust-nera,ust-nera,64.5667,143.2,2120048,17.31,80,80,4.38
80,yenagoa,yenagoa,4.9247,6.2642,2318123,78.91,91,100,3.71
81,qaanaaq,qaanaaq,77.484,-69.3632,3831208,16.07,79,100,6.22
82,dongsheng,dongsheng,39.8161,109.9776,1812256,58.06,49,100,15.88
83,rocha,rocha,-34.4833,-54.3333,3440777,62.65,88,99,10.42
84,bukachacha,bukachacha,52.9833,116.9167,2026023,33.8,36,100,4.59
85,porto novo,porto novo,6.4965,2.6036,2392087,84.2,84,40,11.5
86,port alfred,port alfred,-33.5906,26.891,964432,67.15,83,0,20.18
87,alyangula,alyangula,-13.8483,136.4192,2079582,86,62,40,9.22
88,pacific grove,pacific grove,36.6177,-121.9166,5380437,52.68,71,90,11.5
89,barentsburg,barentsburg,,,,,,,
90,juneau,juneau,58.3019,-134.4197,5554072,48.06,24,20,12.66
91,cobija,cobija,-11.0267,-68.7692,3919998,80.6,94,75,0.72
92,saint-philippe,saint-philippe,-21.3585,55.7679,935215,70.21,83,90,10.36
93,yar-sale,yar-sale,66.8333,70.8333,1486321,33.01,88,100,15.41
94,latung,latung,5.5,120.8833,1707108,82.2,74,72,3.62
95,tchollire,tchollire,8.4022,14.1698,2221607,79.3,55,100,5.53
96,mingaora,mingaora,34.7758,72.3625,1170395,51.87,61,0,6.08
97,port lincoln,port lincoln,-34.7333,135.8667,2063036,63.7,55,34,9.84
98,kargasok,kargasok,59.0556,80.8572,1504382,27.52,85,11,4.52
99,tasiilaq,tasiilaq,65.6145,-37.6368,3424607,26.6,63,75,14.97
100,sinnamary,sinnamary,5.3833,-52.95,3380290,77.65,88,70,11.7
101,americus,americus,32.0724,-84.2327,4179667,57.33,38,1,4.12
102,new norfolk,new norfolk,-42.7826,147.0587,2155415,50.31,72,100,5.01
103,barrow,barrow,71.2906,-156.7887,5880054,24.8,80,1,6.91
104,iquique,iquique,-20.2208,-70.1431,3887127,68,60,75,10.36
105,hilo,hilo,19.7297,-155.09,5855927,76.55,54,75,13.8
106,seddon,seddon,-37.8068,144.8916,7281807,60.39,67,75,10.36
107,mount isa,mount isa,-20.7333,139.5,2065594,75.2,25,5,17.27
108,chuy,chuy,-33.6971,-53.4616,3443061,65.59,81,96,11.14
109,ammon,ammon,43.4696,-111.9666,5583997,57.58,18,1,14.97
110,tual,tual,-5.6667,132.75,1623197,84.36,72,40,9.75
111,shirgaon,shirgaon,19.7,72.7,1256486,80.15,65,100,3.94
112,east london,east london,-33.0153,27.9116,1006984,65.3,81,14,11.86
113,sucua,sucua,-2.4667,-78.1667,3650956,75.2,64,40,4.61
114,saskylakh,saskylakh,71.9167,114.0833,2017155,8.02,94,96,7.09
115,eureka,eureka,40.8021,-124.1637,5563397,55.8,72,10,5.99
116,belushya guba,belushya guba,,,,,,,
117,amderma,amderma,,,,,,,
118,presidencia roque saenz pena,presidencia roque saenz pena,-26.7852,-60.4388,3840300,66,94,100,1.99
119,lagoa,lagoa,39.05,-27.9833,3372964,56.25,79,2,40.31
120,dikson,dikson,73.5069,80.5464,1507390,31.41,94,100,24.36
121,thompson,thompson,55.7435,-97.8558,6165406,21.2,63,75,17.27
122,shushtar,shushtar,32.0455,48.8567,114584,84.47,13,100,3.56
123,chokurdakh,chokurdakh,70.6333,147.9167,2126123,4.89,91,90,5.7
124,bengkulu,bengkulu,-3.8004,102.2655,1649150,76.98,77,96,3.13
125,victoria,victoria,22.2855,114.1577,1819729,77.65,79,0,5.12
126,gat,gat,31.61,34.7642,293842,60.94,82,40,3.44
127,husavik,husavik,66.0449,-17.3389,2629833,37.4,93,0,2.3
128,geraldton,geraldton,-28.7667,114.6,2070998,66.2,63,100,5.75
129,palora,palora,-1.7,-77.9333,3653523,75.2,73,40,2.3
130,jining,jining,35.405,116.5814,1805518,58.1,68,70,14.16
131,narsaq,narsaq,60.9167,-46.05,3421719,48.2,34,20,4.61
132,antofagasta,antofagasta,-23.65,-70.4,3899539,60.8,82,20,6.91
133,paulo ramos,paulo ramos,-4.2167,-45.1833,3392731,73.58,98,100,5.75
134,guerrero negro,guerrero negro,27.9769,-114.0611,4021858,62.08,63,0,19.95
135,port hardy,port hardy,50.6996,-127.4199,6111862,56.21,44,40,10.36
136,tuatapere,tuatapere,-46.1333,167.6833,2180815,57,74,100,8.99
137,ayagoz,ayagoz,47.9714,80.4392,1525988,25.86,64,63,15.28
138,bilibino,bilibino,68.0546,166.4372,2126682,26.4,91,100,3.31
139,hithadhoo,hithadhoo,-0.6,73.0833,1282256,82.81,71,80,6.73
140,atasu,atasu,48.6814,71.6433,1526041,29.68,51,2,12.08
141,the valley,the valley,18.217,-63.0578,3573374,79.36,78,40,13.8
142,erzin,erzin,36.9559,36.2,296852,59,86,4,2.51
143,los alamos,los alamos,35.8881,-106.307,5476825,58.8,12,40,4.61
144,anar darreh,anar darreh,,,,,,,
145,dukhovshchina,dukhovshchina,55.1919,32.4111,564234,41.02,93,100,7.43
146,meulaboh,meulaboh,4.1363,96.1285,1214488,78.1,86,97,3.11
147,yulara,yulara,-25.2406,130.9889,6355222,66.2,42,0,17.27
148,soyo,soyo,-6.1349,12.3689,2236967,79.11,89,100,6.98
149,bambanglipuro,bambanglipuro,-7.95,110.2833,1650434,79.74,72,26,3.65
150,buraydah,buraydah,26.326,43.975,107304,75.2,23,20,6.91
151,liwale,liwale,-9.7667,37.9333,155921,66.34,98,16,4.59
152,college,college,64.8569,-147.8028,5859699,52.23,28,1,12.66
153,mangrol,mangrol,21.1167,70.1167,1263752,78.87,78,99,8.1
154,saint anthony,saint anthony,45.0205,-93.218,5044290,61.36,21,1,12.66
155,namtsy,namtsy,62.7161,129.6658,2019488,19.4,53,0,8.95
156,sinjah,sinjah,,,,,,,
157,torbat-e jam,torbat-e jam,35.244,60.6225,1159362,57.04,21,70,4.88
158,chake chake,chake chake,-5.2459,39.7666,160677,77.38,87,100,11.05
159,harper,harper,4.375,-7.7169,2276492,80.56,85,100,7.05
160,bonavista,bonavista,48.6499,-53.1147,5905393,41.65,100,100,14.97
161,cape town,cape town,-33.9258,18.4232,3369157,56.41,100,90,14.97
162,flers,flers,48.7372,-0.5747,3018339,44.6,81,0,3.44
163,jamestown,jamestown,42.097,-79.2353,5122534,33.24,93,75,12.66
164,georgetown,georgetown,5.4112,100.3354,1735106,74.07,94,40,4.61
165,gilgit,gilgit,35.9221,74.3087,1178338,46.63,43,85,4.92
166,yellowknife,yellowknife,62.456,-114.3525,6185377,15.67,53,90,16.11
167,coquimbo,coquimbo,-29.9533,-71.3436,3893629,59,82,90,2.3
168,quatre cocos,quatre cocos,-20.2078,57.7625,1106643,75.61,94,75,18.41
169,misratah,misratah,32.3754,15.0925,2214846,68.74,55,4,16.87
170,ribeira brava,ribeira brava,32.65,-17.0667,2263905,60.06,93,100,12.06
171,vanimo,vanimo,-2.6741,141.3028,2084442,85.19,66,100,2.68
172,cherskiy,cherskiy,68.75,161.3,2126199,17.73,87,91,8.39
173,kaitangata,kaitangata,-46.2817,169.8464,2208248,57,76,100,1.07
174,saint george,saint george,37.1041,-113.5841,5546220,74.1,16,1,17.27
175,toliary,toliary,,,,,,,
176,ilulissat,ilulissat,69.2167,-51.1,3423146,19.4,73,31,1.14
177,bereda,bereda,43.2686,-7.5406,3105522,46.9,100,22,1.99
178,nishihara,nishihara,26.1842,127.7558,1855342,70.57,94,90,27.63
179,honiara,honiara,-9.4333,159.95,2108502,87.66,64,32,7.72
180,turukhansk,turukhansk,65.8167,87.9833,1488903,27.46,92,91,11.03
181,lebu,lebu,-37.6167,-73.65,3883457,51.35,77,45,1.36
182,ozernovskiy,ozernovskiy,51.5,156.5167,2122293,36.81,91,28,4.72
183,anchorage,anchorage,61.2181,-149.9003,5879400,54.34,28,1,8.05
184,grand gaube,grand gaube,-20.0064,57.6608,934479,75.99,87,100,1.99
185,estelle,estelle,29.8458,-90.1067,4323873,62.02,59,75,8.05
186,marcona,marcona,,,,,,,
187,nantucket,nantucket,41.2835,-70.0995,4944903,44.31,39,20,23.02
188,iqaluit,iqaluit,63.7506,-68.5145,5983720,23,80,90,4.65
189,nikolskoye,nikolskoye,59.7035,30.7861,546105,44.24,87,75,4.47
190,ridgefield,ridgefield,40.8343,-74.0088,5103254,44.87,33,40,14.97
191,cayenne,cayenne,4.9333,-52.3333,3382160,77.58,88,90,10.36
192,borogontsy,borogontsy,62.6683,131.1683,2026160,25.9,80,84,6.49
193,yerbogachen,yerbogachen,61.2767,108.0108,2012956,29.64,82,100,12.95
194,sisimiut,sisimiut,66.9395,-53.6735,3419842,28.87,63,74,8.03
195,souillac,souillac,-20.5167,57.5167,933995,75.2,94,75,18.41
196,palmer,palmer,42.1584,-72.3287,4946620,38.01,35,20,18.41
197,kupang,kupang,-10.1667,123.5833,2057087,81.84,69,5,1.77
198,portsmouth,portsmouth,50.799,-1.0913,2639996,42.01,100,3,14
199,talnakh,talnakh,69.4865,88.3972,1490256,31.64,98,100,14.16
200,nouakchott,nouakchott,18.0858,-15.9785,2377450,69.8,78,7,19.57
201,kavieng,kavieng,-2.5744,150.7967,2094342,82.99,71,99,6.93
202,pevek,pevek,69.7008,170.3133,2122090,22.68,74,11,8.79
203,kasempa,kasempa,-13.4584,25.8338,912628,64.47,74,54,6.04
204,brazzaville,brazzaville,-4.2658,15.2832,2260535,75.33,91,100,2.59
205,diego de almagro,diego de almagro,-26.3667,-70.05,3892454,56.41,70,1,3.13
206,arraial do cabo,arraial do cabo,-22.9661,-42.0278,3471451,69.8,94,40,6.91
207,benguela,benguela,-12.5763,13.4055,3351663,79.56,84,100,4.79
208,mys shmidta,mys shmidta,,,,,,,
209,soma,soma,39.1855,27.6094,300371,48.33,81,0,0.4
210,singarayakonda,singarayakonda,15.25,80.0333,1256176,80.58,81,100,4.92
211,charlestown,charlestown,-32.95,151.6667,2171766,64.27,53,0,6.29
212,sorland,sorland,67.667,12.6934,3137469,36.41,54,45,17.85
213,luanda,luanda,-8.8368,13.2343,2240449,73.4,88,75,9.22
214,lolua,lolua,,,,,,,
215,telimele,telimele,10.9167,-13.3333,2414925,75.13,58,22,2.33
216,lavrentiya,lavrentiya,65.5833,-171,4031637,34.03,74,100,1.74
217,mpulungu,mpulungu,-8.7623,31.1141,175961,70.63,81,8,7.72
218,sentyabrskiy,sentyabrskiy,,,,,,,
219,kudahuvadhoo,kudahuvadhoo,2.6708,72.8944,1337607,82.71,68,25,10.16
220,bilma,bilma,18.6853,12.9164,2446796,85.66,12,3,7.16
221,kieta,kieta,-6.2167,155.6333,2094027,78.82,85,100,0.58
222,rawson,rawson,-43.3002,-65.1023,3839307,57.58,52,0,5.23
223,yaan,yaan,7.3833,8.5667,2338660,80.58,74,100,6.85
224,jinchang,jinchang,38.4953,102.1739,1805733,58.26,73,80,13.35
225,wanaka,wanaka,-44.7,169.15,2184707,59.04,59,100,7.65
226,ancud,ancud,-41.8697,-73.8203,3899695,47.07,100,90,4.61
227,tabiauea,tabiauea,,,,,,,
228,coihaique,coihaique,-45.5752,-72.0662,3894426,42.8,93,75,2.62
229,lompoc,lompoc,34.6391,-120.4579,5367788,53.96,67,0,16.11
230,yelan,yelan,50.949,43.7378,468063,49.87,70,100,5.28
231,ipil,ipil,7.75,122.5167,1710618,82.99,68,67,4.76
232,chernigovka,chernigovka,44.3389,132.5728,2025489,57.72,31,100,8.77
233,muscat,muscat,23.6139,58.5922,287286,89.6,19,0,11.5
234,codrington,codrington,-38.2667,141.9667,2171099,57.87,65,100,13.02
235,pisco,pisco,-13.7,-76.2167,3932145,66.97,82,0,18.41
236,porto walter,porto walter,-8.2686,-72.7439,3662761,73.38,95,8,1.5
237,yatou,yatou,37.15,122.3833,1786855,51.85,92,100,21.56
238,santiago,santiago,-33.4569,-70.6483,3871336,59.59,82,0,10.36
239,palabuhanratu,palabuhanratu,,,,,,,
240,port augusta,port augusta,-32.5,137.7667,2063056,61.18,55,90,8.05
241,puerto escondido,puerto escondido,15.85,-97.0667,3520994,84.2,79,40,9.22
242,san cristobal,san cristobal,7.7669,-72.225,3628473,82.4,69,20,5.75
243,angicos,angicos,-5.6656,-36.6011,3407544,75.61,87,13,7.23
244,chifeng,chifeng,42.2683,118.9636,2038067,52.23,71,100,3.02
245,eyl,eyl,7.9803,49.8164,60019,82.11,73,19,5.53
246,samusu,samusu,,,,,,,
247,ponta delgada,ponta delgada,37.7333,-25.6667,3372783,59,72,40,35.68
248,zhigalovo,zhigalovo,54.8097,105.1578,2012532,31.84,59,6,1.88
249,castelnaudary,castelnaudary,43.3183,1.9545,3028351,46.4,76,0,4.61
250,piranshahr,piranshahr,36.701,45.1413,121110,55.06,65,100,5.39
251,rosehearty,rosehearty,57.697,-2.1132,2639144,44.01,75,92,4.18
252,beringovskiy,beringovskiy,63.05,179.3167,2126710,28.29,71,100,9.35
253,nuuk,nuuk,64.1835,-51.7216,3421319,35.6,69,0,4.61
254,avera,avera,33.194,-82.5271,4231997,53.87,33,1,3.15
255,nautla,nautla,20.2167,-96.7833,3522788,76.77,87,97,8.32
256,raudeberg,raudeberg,61.9875,5.1352,3146487,36,93,100,9.86
257,bathsheba,bathsheba,13.2167,-59.5167,3374083,78.8,65,20,20.71
258,bandar,bandar,2.05,99.75,1215498,73.22,98,100,1.39
259,nicoya,nicoya,10.1483,-85.452,3622716,84.2,48,0,10.36
260,smithers,smithers,54.7804,-127.1743,6149996,53.6,22,1,4.61
261,gonen,gonen,40.1049,27.654,746574,53.78,87,0,1.14
262,alofi,alofi,-19.0595,-169.9187,4036284,84.2,74,40,11.5
263,dinguiraye,dinguiraye,11.3,-10.7167,2421903,80.58,53,100,3.15
264,lamar,lamar,33.6668,-95.5836,4705086,57.72,47,90,6.91
265,bambous virieux,bambous virieux,-20.3428,57.7575,1106677,75.58,94,75,18.41
266,jalu,jalu,29.0331,21.5482,86049,70.39,21,12,10.33
267,leningradskiy,leningradskiy,69.3833,178.4167,2123814,34.68,88,100,3
268,lata,lata,40.1629,-8.3327,2738381,55.94,91,100,3.56
269,illoqqortoormiut,illoqqortoormiut,,,,,,,
270,marienburg,marienburg,54.0359,19.0266,3092472,38.1,66,100,9.22
271,baiyin,baiyin,36.5583,104.2081,1817240,51.8,76,20,2.24
272,angouleme,angouleme,45.65,0.15,3037598,53.55,54,0,8.05
273,pitogo,pitogo,13.7847,122.0881,1693303,84.51,69,90,8.99
274,mikhaylovskoye,mikhaylovskoye,51.8239,79.7172,1498775,31.62,63,0,11.39
275,porbandar,porbandar,21.6422,69.6093,1259395,79.48,78,100,8.39
276,nizhneyansk,nizhneyansk,,,,,,,
277,khatanga,khatanga,71.9667,102.5,2022572,24.87,93,99,14.25
278,havoysund,havoysund,70.9963,24.6622,779622,32,80,40,5.75
279,rio casca,rio casca,-20.2261,-42.6508,3451236,66.51,79,13,4.12
280,farsund,farsund,58.0948,6.8047,3157799,40.48,77,10,21.74
281,tawzar,tawzar,,,,,,,
282,bagdarin,bagdarin,54.4333,113.6,2027244,28.87,27,3,5.01
283,sorvag,sorvag,,,,,,,
284,bethel,bethel,41.3712,-73.414,5282297,39.04,54,55,4
285,yairipok,yairipok,24.6667,94.0667,1252810,72.48,63,6,1.86
286,zanjan,zanjan,36.6736,48.4787,111453,59.81,51,99,5.88
287,dunmore town,dunmore town,25.5,-76.65,3572462,78.67,73,34,5.01
288,mergui,mergui,,,,,,,
289,sarangani,sarangani,5.4033,125.4636,1687186,83.26,75,68,13.6
290,taoudenni,taoudenni,22.6783,-3.9836,2450173,87.91,9,0,6.44
291,san quintin,san quintin,30.4833,-115.95,3984997,59.92,70,3,19.64
292,luganville,luganville,-15.5333,167.1667,2136150,86.41,66,30,8.95
293,alice springs,alice springs,-23.7,133.8833,2077895,66.2,42,0,10.36
294,esperance,esperance,-33.8667,121.9,2071860,55.4,100,100,12.66
295,cabedelo,cabedelo,-6.9811,-34.8339,3404558,78.8,94,0,5.75
296,skjervoy,skjervoy,70.0311,20.9714,777682,36.32,59,100,18.34
297,fairbanks,fairbanks,64.8378,-147.7164,5861897,52.65,28,1,12.66
298,pasighat,pasighat,28.0667,95.3333,1260206,75.13,75,1,0.65
299,waipawa,waipawa,-41.4122,175.5153,2206874,62.71,68,75,17.27
300,srednekolymsk,srednekolymsk,67.45,153.6833,2121025,17.37,79,93,5.77
301,hit,hit,33.6416,42.8251,95788,73.81,19,5,11.27
302,essau,essau,13.4839,-16.5347,2413533,69.8,88,0,5.75
303,banjar,banjar,-8.19,114.9675,1650232,80.6,69,20,2.3
304,bogatoye,bogatoye,53.0601,51.3325,575756,37.69,95,100,5.95
305,amapa,amapa,1,-52,3407762,71.91,99,100,0.6
306,kavaratti,kavaratti,10.5669,72.642,1267390,83.55,67,8,5.88
307,mala,mala,-12.6581,-76.6308,3935572,67.35,89,17,5.03
308,baraya,baraya,3.1533,-75.0531,3689232,73.76,74,5,6.82
309,santa isabel do rio negro,santa isabel do rio negro,-0.4139,-65.0192,3662489,74.73,97,100,1.01
310,gorkovskoye,gorkovskoye,,,,,,,
311,ornskoldsvik,ornskoldsvik,63.2909,18.7153,2686469,33.8,64,91,10.36
312,amazar,amazar,53.858,120.875,2027806,34.09,27,95,6.78
313,grand centre,grand centre,,,,,,,
314,pangai,pangai,-19.8,-174.35,4032369,86,70,20,6.91
315,thai binh,thai binh,20.45,106.3333,1566346,80.6,89,75,5.75
316,puerto leguizamo,puerto leguizamo,-0.1934,-74.7819,3671437,73.51,94,16,2.46
317,marsh harbour,marsh harbour,26.5412,-77.0636,3571913,75.69,69,8,11.59
318,mokhsogollokh,mokhsogollokh,61.4681,128.9203,2019867,27.95,71,98,9.57
319,sefophe,sefophe,-22.1833,27.9667,933112,58.87,55,99,3.38
320,luderitz,luderitz,-26.6481,15.1594,3355672,64.87,71,16,8.28
321,bongandanga,bongandanga,1.5,21.05,218229,69.22,96,78,2.42
322,vestmannaeyjar,vestmannaeyjar,63.4427,-20.2734,3412093,44.42,84,100,25.7
323,cueramaro,cueramaro,20.6167,-101.7167,4012341,84.2,11,75,11.5
324,westport,westport,41.1415,-73.3579,4845585,41.32,53,64,15.77
325,hasaki,hasaki,35.7333,140.8333,2112802,57.07,58,20,11.5
326,tarudant,tarudant,,,,,,,
327,makat,makat,47.6469,53.3463,608872,57.31,29,100,18.1
328,berlevag,berlevag,70.8578,29.0864,780687,32.95,69,87,6.82
329,pangoa,pangoa,-12.1167,-73,3933104,69.17,99,17,1.39
330,marystown,marystown,47.1666,-55.1483,6067472,40.78,95,100,14.7
331,asfi,asfi,32.2994,-9.2372,2537881,61.75,83,100,6.11
332,morros,morros,-9.4467,-46.3003,3394372,73.29,83,96,1.88
333,ponta do sol,ponta do sol,32.6667,-17.1,2264557,60.06,89,100,3
334,shebunino,shebunino,46.4339,141.8603,2121324,44.44,81,26,6.24
335,dali,dali,25.7,100.1833,1814093,66.2,49,6,5.19
336,mount gambier,mount gambier,-37.8333,140.7667,2156643,55.4,82,90,4.61
337,axim,axim,4.8699,-2.2405,2303611,81.66,84,100,7.96
338,mindelo,mindelo,16.8901,-24.9804,3374462,69.8,68,40,20.71
339,palu,palu,-0.8917,119.8707,1633034,86.07,67,78,0.81
340,mahibadhoo,mahibadhoo,3.7833,72.9667,1337605,82.65,73,63,10.47
341,thinadhoo,thinadhoo,0.5333,72.9333,1337610,82.99,61,26,9.33
342,tarko-sale,tarko-sale,64.9225,77.785,1490085,28.99,71,91,5.99
343,sabang,sabang,5.8933,95.3214,1214026,82.9,73,88,15.88
344,atar,atar,20.5169,-13.0499,2381334,77.31,13,0,7.45
345,douentza,douentza,14.9951,-2.9517,2458334,87.17,16,35,4.61
346,makokou,makokou,0.5738,12.8642,2399371,70.56,97,100,3.06
347,kanke,kanke,23.4333,85.3167,1268032,75.2,64,40,2.82
348,celestun,celestun,20.8667,-90.4,3531368,80.47,79,19,19.1
349,acarau,acarau,-2.8856,-40.12,3408368,78.17,82,11,5.93
350,dickinson,dickinson,29.4608,-95.0513,4686163,66.4,77,90,20.71
351,terrace,terrace,54.5163,-128.6035,6162949,59,21,20,4.61
352,sulecin,sulecin,52.4443,15.1168,3084237,39.69,81,31,7
353,brae,brae,60.3964,-1.353,2654970,42.8,70,100,6.91
354,atherton,atherton,53.5237,-2.4935,2656847,43.23,47,9,2.86
355,grindavik,grindavik,63.8424,-22.4338,3416888,44.6,81,90,29.93
356,inyonga,inyonga,-6.7167,32.0667,159134,61.83,93,2,5.19
357,plettenberg bay,plettenberg bay,-34.0527,23.3716,964712,65.52,77,4,4.74
358,matinhos,matinhos,-25.8175,-48.5428,3457455,55.33,100,75,2.3
359,sibolga,sibolga,1.7427,98.7792,1213855,77.61,85,100,1.97
360,carnarvon,carnarvon,-24.8667,113.6333,2074865,66.2,63,100,6.91
361,oxapampa,oxapampa,-10.5775,-75.4017,3933874,58.69,97,54,2.59
362,kant,kant,27.8,79.8,1267979,75.09,37,35,4.05
363,acari,acari,-15.4311,-74.6158,3948613,70.57,86,21,4.92
364,galesburg,galesburg,40.9478,-90.3712,4893392,50,34,1,8.05
365,bargal,bargal,,,,,,,
366,vanavara,vanavara,60.34,102.2797,2013727,30.16,85,99,10.04
367,klaksvik,klaksvik,62.2266,-6.589,2618795,41,87,75,5.19
368,verkhnyaya inta,verkhnyaya inta,65.9811,60.3094,1487332,37.9,91,100,13.56
369,yankton,yankton,42.8711,-97.3973,5233053,48.58,61,90,11.5
370,cap malheureux,cap malheureux,-19.9842,57.6142,934649,75.99,87,100,3
371,toamasina,toamasina,-18.1667,49.3833,1053384,71.6,94,75,5.75
372,coihueco,coihueco,-36.6167,-71.8333,3894406,53.6,100,20,1.7
373,zyryanka,zyryanka,65.75,150.85,2119283,21.07,79,100,10.98
374,acapulco,acapulco,16.8634,-99.8901,3533462,82.4,69,20,10.36
375,krasnoobsk,krasnoobsk,54.9198,82.9909,1502091,27.93,63,0,4.47
376,tazovskiy,tazovskiy,67.4667,78.7,1489853,29.53,86,96,17.22
377,taman,taman,45.2117,36.7161,484670,42.8,87,3,8.95
378,graham,graham,47.0529,-122.2943,5795906,60.08,51,90,5.75
379,bellavista,bellavista,-7.0561,-76.5911,3699364,82.4,69,20,3.44
380,faanui,faanui,-16.4833,-151.75,4034551,81.09,73,9,14.29
381,kruisfontein,kruisfontein,-34.0033,24.7314,986717,63,86,0,1.01
382,aklavik,aklavik,68.2191,-135.0107,5882953,28.4,50,20,4.61
383,jiddah,jiddah,,,,,,,
384,vila do maio,vila do maio,15.1333,-23.2167,3374120,69.8,78,20,18.41
385,kulhudhuffushi,kulhudhuffushi,6.6221,73.07,1337613,83.19,72,75,7.34
386,nileshwar,nileshwar,12.25,75.1,1261394,77.86,88,100,5.61
387,magistralnyy,magistralnyy,56.1725,107.4458,2020584,31.91,63,5,1.39
388,bafoulabe,bafoulabe,13.8065,-10.8321,2460755,93.79,29,100,4.45
389,mezen,mezen,65.8522,44.24,527321,34.93,95,100,11.36
390,kutum,kutum,14.2,24.6667,371745,74.8,20,85,7.38
391,sonoita,sonoita,31.85,-112.8333,3982837,75.99,30,0,13.04
392,deer lake,deer lake,49.1667,-57.4316,5937252,48.11,87,90,11.5
393,maniitsoq,maniitsoq,65.4167,-52.9,3421982,28.81,64,6,7.72
394,naze,naze,28.3667,129.4833,1855540,71.6,73,75,19.57
395,hastings,hastings,50.8552,0.5729,2647356,38.21,87,6,19.57
396,esso,esso,55.9333,158.7,2125711,36.45,99,79,0.56
397,sao joao da barra,sao joao da barra,-21.6403,-41.0511,3448903,70.25,80,0,12.53
398,heubach,heubach,48.7927,9.9337,2905154,35.33,74,5,2.04
399,leshukonskoye,leshukonskoye,64.8989,45.7622,535839,35.71,82,100,9.73
400,orapa,orapa,-21.2833,25.3667,933186,58.77,42,99,8.01
401,wyszkow,wyszkow,52.5928,21.4584,754454,37.69,80,15,3
402,motala,motala,58.5371,15.0365,2690960,35.64,56,55,8.05
403,miri,miri,4.4148,114.0089,1738050,82.2,83,20,3.44
404,bireun,bireun,5.203,96.7009,1215350,78.94,82,100,4.56
405,champerico,champerico,14.3,-91.9167,3598787,75.81,89,75,5.26
406,san andres,san andres,12.5847,-81.7006,3670218,84.2,70,40,13.8
407,tevaitoa,tevaitoa,-16.7833,-151.5,4033375,80.74,75,17,15.37
408,halalo,halalo,,,,,,,
409,moose factory,moose factory,51.2585,-80.6094,6078372,33.8,64,40,6.91
410,tilichiki,tilichiki,60.4667,166.1,2120591,28.13,84,16,3.09
411,mirnyy,mirnyy,62.5353,113.9611,2019951,28.58,86,100,15.82
412,metlika,metlika,45.6472,15.3142,3195214,45.72,90,100,1.86
413,dingle,dingle,10.9995,122.6711,1714733,86.76,61,100,11.34
414,asau,asau,46.4333,26.4,686090,48.2,71,0,2.3
415,helena,helena,46.5927,-112.0361,5656882,32.81,69,90,14.97
416,pushkino,pushkino,56.0172,37.8667,503977,48.2,71,0,8.95
417,kualakapuas,kualakapuas,-3.0091,114.3876,1639304,78.8,89,7,2.3
418,hami,hami,42.8,93.45,1529484,47.39,30,100,3.51
419,touros,touros,-5.1989,-35.4608,3386213,78.8,89,40,3.44
420,kropotkin,kropotkin,45.4375,40.5756,540761,45.19,93,0,6.35
421,hervey bay,hervey bay,-25.2986,152.8535,2146219,70,50,95,4
422,saint-georges,saint-georges,12.0564,-61.7485,3579925,80.6,78,20,23.02
423,umm lajj,umm lajj,25.0213,37.2685,100926,79.72,66,97,6.71
424,saldanha,saldanha,-33.0117,17.9442,3361934,59,88,0,3.44
425,keuruu,keuruu,62.2667,24.7,652977,34.29,100,90,3.44
426,kirakira,kirakira,-10.4544,161.9205,2178753,85.42,69,100,6.76
427,aba,aba,5.1066,7.3667,2353151,78.12,89,100,3.51
428,chernyshevskiy,chernyshevskiy,63.0128,112.4714,2025456,27.68,86,100,13.49
429,hashtgerd,hashtgerd,35.9642,50.6858,122438,68,34,75,11.5
430,tsihombe,tsihombe,,,,,,,
431,hampton,hampton,37.0299,-76.3452,4762894,51.93,32,20,9.22
432,carupano,carupano,10.6678,-63.2585,3646382,76.37,84,2,10.42
433,mazatlan,mazatlan,23.2167,-106.4167,3996322,80.96,47,40,11.5
434,sumenep,sumenep,-7.0167,113.8667,1626099,81.52,72,7,4.9
435,bud,bud,39.447,-86.1758,4255151,47.39,43,1,4.61
436,seymchan,seymchan,62.8833,152.4333,2121373,25.97,93,100,1.95
437,kandrian,kandrian,-6.2167,149.55,2094746,84.56,70,98,4.07
438,french harbor,french harbor,16.35,-86.4333,3609667,81.61,78,20,18.41
439,evensk,evensk,61.95,159.2333,2125693,29.03,95,100,3.85
440,saleaula,saleaula,,,,,,,
441,quirinopolis,quirinopolis,-18.4483,-50.4517,3451931,66.52,43,0,3.33
442,sao filipe,sao filipe,14.8961,-24.4956,3374210,71.92,74,22,11.61
443,banda aceh,banda aceh,5.5577,95.3222,1215502,81.97,76,97,10.31
444,pokhara,pokhara,28.2333,83.9833,1282898,68.02,26,0,4.85
445,slobozia,slobozia,46.7281,29.7078,617381,51.8,76,0,5.75
446,ketchikan,ketchikan,55.3422,-131.6461,5554428,52.97,40,100,4.61
447,north bend,north bend,43.4065,-124.2243,5742974,56.19,71,40,11.5
448,masjed-e soleyman,masjed-e soleyman,,,,,,,
449,peniche,peniche,39.3558,-9.3811,2264923,57.07,83,100,8.01
450,vila franca do campo,vila franca do campo,37.7167,-25.4333,3372472,59,72,40,35.68
451,olinda,olinda,-8.0089,-34.8553,3393536,80.6,74,75,5.75
452,vaitupu,vaitupu,,,,,,,
453,ginda,ginda,30.6945,78.4932,1253628,46,73,85,7.9
454,wanxian,wanxian,30.8039,108.3897,1791748,72.27,83,94,6.49
455,kahului,kahului,20.8947,-156.47,5847411,79.14,51,40,23.02
456,brakpan,brakpan,-26.2366,28.3694,1016181,55.92,62,62,2.3
457,pangody,pangody,65.85,74.4859,1495626,29.71,84,94,18.41
458,quixada,quixada,-4.9714,-39.0153,3390907,72.75,95,100,3.02
459,longyearbyen,longyearbyen,78.2186,15.6401,2729907,15.8,67,75,4.61
460,nabire,nabire,-3.3667,135.4833,1634614,85.03,69,97,1.66
461,valcourt,valcourt,45.5001,-72.3158,6172998,33.3,51,100,6.91
462,miranda,miranda,3.2499,-76.2281,3674702,77,69,40,11.5
463,baijiantan,baijiantan,45.6333,85.1833,1529626,38.77,31,100,21.63
464,davidson,davidson,36.1501,-86.7833,4617305,57.2,35,1,4.61
465,tonekabon,tonekabon,36.8163,50.8738,112656,60.8,94,75,6.91
466,puerto del rosario,puerto del rosario,28.5004,-13.8627,2512186,68,68,0,8.05
467,ndele,ndele,8.4109,20.6473,237379,76.35,56,49,4.34
468,bocana de paiwas,bocana de paiwas,12.7857,-85.1227,3620661,77.49,59,15,11.63
469,xining,xining,36.6167,101.7667,1788852,52.86,71,100,1.63
470,san borja,san borja,-14.8167,-66.85,3905792,80.6,83,75,2.51
471,kouango,kouango,4.9934,19.9619,2385535,72.5,88,100,3.83
472,kyren,kyren,51.6828,102.1408,2021031,28.69,70,100,2.06
473,winslow,winslow,35.0242,-110.6974,5321473,68,10,1,14.97
474,ucluelet,ucluelet,48.9329,-125.5528,6171633,57.06,71,20,8.05
475,kholodnyy,kholodnyy,62.7167,147.95,2124611,22.75,82,100,1.95
476,makamba,makamba,-4.1348,29.804,422232,60.58,88,35,1.36
477,vardo,vardo,70.3705,31.1107,777019,35.33,68,100,15.43
478,linchuan,linchuan,,,,,,,
479,coracora,coracora,-15.0333,-73.7833,3942259,48.27,81,1,1.1
480,katherine,katherine,-14.4667,132.2667,2068655,80.6,74,90,12.66
481,torbay,torbay,47.6666,-52.7314,6167817,42.35,100,90,33.38
482,hirado,hirado,33.3597,129.5531,1862555,64.4,77,0,1.14
483,tateyama,tateyama,34.9833,139.8667,1850523,57.43,58,40,16.11
484,hobyo,hobyo,5.3505,48.5268,57000,83.59,70,100,10.29
485,sinop,sinop,41.7711,34.8709,739598,44.17,72,6,8.88
486,ratnapura,ratnapura,6.6828,80.3992,1228730,75.36,94,18,1.63
487,huarmey,huarmey,-10.0681,-78.1522,3939168,68.31,85,1,10.78
488,jiblah,jiblah,13.9216,44.1467,74185,62.87,41,23,4.34
489,aparecida,aparecida,-22.8469,-45.2297,3471949,62.6,82,0,1.14
490,cockburn town,cockburn town,21.4612,-71.1419,3576994,78.19,79,2,17.31
491,buctzotz,buctzotz,21.2,-88.7833,3532089,79.32,71,16,9.4
492,petropavlovsk-kamchatskiy,petropavlovsk-kamchatskiy,53.0452,158.6483,2122104,46.4,61,20,4.47
493,kuusamo,kuusamo,65.9667,29.1833,649924,28.4,93,0,2.3
494,brokopondo,brokopondo,4.75,-55.1667,3384481,76.35,91,100,9.33
495,laohekou,laohekou,32.3858,111.6678,1804386,61.54,82,100,9.19
496,nunchia,nunchia,5.6406,-72.1986,3673695,76.08,65,7,5.06
497,kysyl-syr,kysyl-syr,63.8986,122.7617,2021017,29.37,90,100,10.02
498,los corrales de buelna,los corrales de buelna,43.2636,-4.0726,3118024,56.28,87,0,7.36
499,sao felix do xingu,sao felix do xingu,-6.6447,-51.995,3388847,71.94,97,89,0.4
500,aswan,aswan,24.0934,32.907,359792,83.43,18,21,10.49
501,along,along,28.1667,94.7667,1278969,68.59,90,64,0.83
502,suntar,suntar,62.1444,117.6319,2015913,30.45,86,100,13.82
503,carangola,carangola,-20.7331,-42.0294,3467012,63.55,90,12,1.66
504,emborion,emborion,40.4833,21.55,736324,51.8,66,100,2.3
505,fort nelson,fort nelson,58.8053,-122.7002,5955902,41,24,40,8.05
506,komsomolets,komsomolets,53.7453,62.0708,1522348,45.12,61,100,5.19
507,nemuro,nemuro,43.3236,145.575,2128975,42.8,65,20,8.05
508,birin,birin,26.8865,88.0718,1283334,62.55,43,3,2.44
509,ngunguru,ngunguru,-35.6167,174.5,2186111,66,93,100,3
510,valley city,valley city,46.9233,-98.0032,5062292,59,26,1,20.71
511,weiser,weiser,44.251,-116.9693,5611730,66.94,18,1,9.1
512,saint-pierre,saint-pierre,-21.3393,55.4781,935214,71.1,83,90,10.36
513,fandriana,fandriana,-20.2333,47.3833,1065222,59.63,98,100,2.15
514,santa vitoria do palmar,santa vitoria do palmar,-33.5189,-53.3681,3449747,65.89,81,78,11.61
515,tamiahua,tamiahua,21.2667,-97.45,3516376,75.2,87,100,8.77
516,freeport,freeport,40.6576,-73.5832,5117949,45,31,75,11.5
517,avesta,avesta,60.1455,16.1679,2724231,35.01,59,1,10
518,umzimvubu,umzimvubu,,,,,,,
519,opuwo,opuwo,-18.0607,13.84,3354077,67.98,37,26,5.97
520,okhotsk,okhotsk,59.3833,143.3,2122605,31.01,93,100,10.63
521,safaga,safaga,26.7292,33.9365,358620,73.4,38,0,14.97
522,bairiki,bairiki,1.3292,172.9752,7601762,87.8,70,40,5.75
523,urusha,urusha,54.05,122.9,2014078,32.13,37,100,7.94
524,trogir,trogir,43.5125,16.2517,3188763,51.89,82,75,4.61
525,lincoln,lincoln,40.8,-96.667,5072006,54.1,35,90,13.8
526,fuling,fuling,29.7022,107.3919,1810979,73.83,81,100,2.64
527,poum,poum,-20.2333,164.0167,2138555,79.27,76,100,5.91
528,krasnoselkup,krasnoselkup,65.7,82.4667,1502073,26.33,87,70,15.52
529,salym,salym,60.0625,71.4789,1493162,32.68,71,22,10.25
530,comodoro rivadavia,comodoro rivadavia,-45.8667,-67.5,3860443,46.4,81,0,5.26
531,malko tarnovo,malko tarnovo,41.9833,27.5333,729322,50,93,0,2.3
532,katsuura,katsuura,35.1333,140.3,2112309,57.67,54,20,9.22
533,kuching,kuching,1.55,110.3333,1735634,75.11,94,20,3.06
534,hargeysa,hargeysa,9.56,44.065,57289,70.99,67,100,7.14
535,doha,doha,25.2867,51.5333,290030,79.03,44,0,3.44
536,santa clara,santa clara,22.4,-79.9667,3537906,80.6,39,75,6.91
537,emerald,emerald,-23.5333,148.1667,2167426,68,56,90,18.41
538,yarkovo,yarkovo,57.4028,67.0786,1486369,39.22,57,89,9.46
539,hofn,hofn,64.2539,-15.2082,2630299,37.92,78,100,2.91
540,sangmelima,sangmelima,2.9333,11.9833,2222230,67.41,99,100,1.95
541,pathein,pathein,16.7833,94.7333,1328421,84.92,64,52,12.64
542,rio gallegos,rio gallegos,-51.6226,-69.2181,3838859,46.4,87,40,1.14
543,komsomolskiy,komsomolskiy,40.4272,71.7189,1513491,45.97,81,0,2.64
544,ciudad bolivar,ciudad bolivar,8.1222,-63.5497,3645532,83.01,59,77,15.55
545,santiago del estero,santiago del estero,-27.7951,-64.2615,3835869,67.17,94,100,3.36
546,kinablangan,kinablangan,7.6947,126.5503,1708743,84.63,64,23,2.82
547,san cayetano,san cayetano,7.8771,-72.6243,3669977,82.4,69,20,5.75
548,baoying,baoying,33.2292,119.3092,1816890,62.24,82,100,4.54
549,wanning,wanning,18.8003,110.3967,1791779,82.09,72,8,8.01
550,podor,podor,16.6527,-14.9587,2245170,78.8,47,0,4.61
551,aitape,aitape,-3.1374,142.3475,2101169,84.31,71,100,3.18
552,half moon bay,half moon bay,37.4636,-122.4286,5354943,52.48,87,90,11.5
553,dalvik,dalvik,65.9702,-18.5286,2632287,37.4,93,0,2.3
554,muli,muli,2.9167,73.5667,1337617,82.99,68,87,10.54
555,babanusah,babanusah,,,,,,,
556,airai,airai,-8.9266,125.4092,1651810,72.09,55,13,1.68
557,jacareacanga,jacareacanga,-6.2222,-57.7528,3397763,72.75,97,12,0.65
558,clyde river,clyde river,70.4692,-68.5914,5924351,15.8,79,90,8.05
559,soller,soller,39.7662,2.7152,2510821,53.26,92,5,1.99
560,manchar,manchar,19,73.9333,1263937,74.37,48,20,4.38
561,sioux lookout,sioux lookout,50.1001,-91.917,6148373,60.8,23,20,9.22
562,port blair,port blair,11.6667,92.75,1259385,81.5,73,89,4.88
563,tiznit,tiznit,29.5833,-9.5,2527087,57.92,84,36,3.09
564,burley,burley,42.5357,-113.7928,5587385,64.4,19,1,17.27
565,point pleasant,point pleasant,40.0832,-74.0682,5102796,45.77,31,90,18.41
566,naftah,naftah,,,,,,,
567,linkou,linkou,45.3,130.2833,2036066,61.39,52,100,3.27
568,karaton,karaton,-6.3424,106.1045,1630058,80.29,74,20,9.22
569,kuche,kuche,,,,,,,
570,talas,talas,38.6908,35.5538,299900,37.4,81,0,4.61
571,caxito,caxito,-8.5785,13.6643,2242001,73.4,88,75,9.22
572,hay river,hay river,60.8156,-115.7999,5972762,21.2,58,100,9.22
573,san vicente,san vicente,-26.6167,-54.1333,3428068,60.42,67,100,1.92
574,laguna de perlas,laguna de perlas,12.3429,-83.6712,3618522,82.4,78,75,4.61
575,iranshahr,iranshahr,27.2025,60.6848,1160939,75.2,19,0,1.63
576,machilipatnam,machilipatnam,16.1667,81.1333,1264637,82.4,83,40,3.44
577,nome,nome,64.5011,-165.4064,5870133,44.6,49,40,8.05
578,golden,golden,39.7555,-105.2211,5423294,37.8,61,75,3.13
579,christchurch,christchurch,-43.5333,172.6333,2192362,70.57,37,100,6.91
580,mattru,mattru,7.6244,-11.8332,2409215,78.08,92,89,1.77
581,zhuhai,zhuhai,22.2769,113.5678,1790437,79.11,83,0,3.44
582,mentok,mentok,,,,,,,
583,gannan,gannan,47.9147,123.5031,2037311,54.05,47,24,17.31
584,progreso,progreso,21.2833,-89.6667,3521108,86,66,75,6.91
585,wuchang,wuchang,44.9143,127.15,2034141,54.23,86,100,6.11
586,makakilo city,makakilo city,21.3469,-158.0858,5850554,82.89,45,40,5.75
587,oktyabrskoye,oktyabrskoye,43.0645,44.7417,515805,50,93,100,6.71
588,scottsbluff,scottsbluff,41.8666,-103.6672,5699404,60.01,19,20,6.91
589,tarazona,tarazona,41.9,-1.7333,3108308,51.91,87,48,10.36
590,sembe,sembe,1.6481,14.5806,2255304,72.7,93,100,1.21
591,hvide sande,hvide sande,56.0045,8.1294,2619537,41,78,5,3
592,mazara del vallo,mazara del vallo,37.6641,12.588,6541759,57.29,94,20,5.75
593,salalah,salalah,17.0151,54.0924,286621,80.6,69,20,2.3
594,lubumbashi,lubumbashi,-11.6609,27.4794,922704,63.52,91,100,5.75
595,samalaeulu,samalaeulu,,,,,,,
596,walvis bay,walvis bay,-22.9575,14.5053,3359638,62.78,77,6,3.44
597,san carlos de bariloche,san carlos de bariloche,-41.1456,-71.3082,7647007,51.8,50,75,10.36
598,monroe,monroe,43.1501,-77.6831,5127305,37.09,60,75,13.8
599,darnah,darnah,32.767,22.6367,87205,61.27,65,100,11.05
600,bantou,bantou,26.2151,117.4893,1796663,77.54,78,26,3
601,oktyabrskiy,oktyabrskiy,54.4815,53.471,515879,38.25,97,100,4.07
602,hirara,hirara,24.8,125.2833,1862505,75.2,88,75,18.41
603,saint-leu,saint-leu,-21.15,55.2833,6690297,70.29,83,90,10.36
604,port-gentil,port-gentil,-0.7193,8.7815,2396518,76.8,86,100,9.57
605,azimur,azimur,,,,,,,
606,bedesa,bedesa,8.9,40.7833,342559,59.43,89,56,3.36
607,nalut,nalut,30.3333,10.85,2214432,74.28,24,11,5.82
608,wundanyi,wundanyi,-3.4019,38.364,178073,60.93,92,100,2.98
609,talcahuano,talcahuano,-36.7167,-73.1167,3870282,53.6,87,0,4.61
610,kizukuri,kizukuri,40.8061,140.3861,2129513,51.44,43,0,5.75
611,gao,gao,16.6362,1.637,2457161,85.42,10,7,9.51
612,balimo,balimo,,,,,,,
613,tokzar,tokzar,,,,,,,
614,pochutla,pochutla,15.7432,-96.4661,3517970,89.29,37,75,4.79
615,viedma,viedma,-40.8135,-62.9967,3832899,57.42,73,57,7.27
616,fethiye,fethiye,36.6217,29.1164,314967,50,81,0,5.75
617,chegdomyn,chegdomyn,51.1167,133.0167,2025579,47.25,88,100,2.98
618,saharanpur,saharanpur,29.9667,77.55,1257806,66.94,54,93,7.29
619,vladivostok,vladivostok,43.1056,131.8735,2013348,51.8,35,100,2.24
620,arman,arman,59.7,150.1667,2127060,31.86,98,100,4.21
621,elesbao veloso,elesbao veloso,-6.2019,-42.1403,3400920,72.81,93,100,0.49
622,puerto madero,puerto madero,14.7208,-92.4215,3520989,86,74,75,6.91
623,tibati,tibati,6.4667,12.6333,2221530,66.79,94,100,1.48
624,abu dhabi,abu dhabi,24.4667,54.3667,292968,79.57,53,0,2.3
