,city,city id,Latitude,Longitude,Temperature,Humidity,Cloudy,Wind Speed (mph)
0,Punta Arenas,3874787,-53.15,-70.9167,46.2,93,75,4.61
618,Lebu,3883457,-37.6167,-73.65,52.32,76,89,2.3
619,Nova Olímpia,3456137,-14.7972,-57.2881,79.11,54,41,2.59
620,Artyom,587207,40.4723,50.333,55.4,76,20,18.41
621,Elko,5703673,41.0002,-115.5012,61.14,13,1,16.11
622,Mar del Plata,3430863,-38.0023,-57.5575,67.73,94,40,8.05
623,Guerrero Negro,4021858,27.9769,-114.0611,64.53,55,2,19.44
624,Vostok,2013279,46.4856,135.8833,56.03,38,100,3.4
625,Cape Town,3369157,-33.9258,18.4232,56.48,100,90,12.66
626,Narsaq,3421719,60.9167,-46.05,50.0,29,20,11.5
627,Faanui,4034551,-16.4833,-151.75,81.09,73,11,14.76
628,Kapaa,5848280,22.0752,-159.319,79.47,73,20,9.22
629,Mahébourg,934322,-20.4081,57.7,77.0,94,75,6.91
630,Arraial do Cabo,3471451,-22.9661,-42.0278,70.83,88,20,14.97
631,Sitka,5557293,57.0531,-135.33,51.8,50,20,8.05
632,Mackenzie,6063191,55.2999,-123.1698,41.0,30,1,5.75
633,Upernavik,3418910,72.7868,-56.1549,22.14,88,100,6.53
634,Bluff,2206939,-46.6,168.3333,54.0,89,100,5.99
635,Cabo San Lucas,3985710,22.8909,-109.9124,80.24,26,20,4.61
636,Cockburn Town,3576994,21.4612,-71.1419,80.6,74,40,11.5
637,Sioux Lookout,6148373,50.1001,-91.917,64.4,19,40,10.36
638,Hong Kong,1819729,22.2855,114.1577,74.3,84,0,4.68
639,Kaitangata,2208248,-46.2817,169.8464,55.0,84,100,2.37
640,Szczytno,757357,53.5626,20.9875,35.6,93,40,6.91
641,Tākestān,113491,36.0696,49.6959,64.4,42,0,4.61
642,Port Elizabeth,964420,-33.918,25.5701,64.4,94,0,11.5
643,Severnyy,496358,50.677,36.5532,50.0,71,0,8.95
644,Ngunguru,2186111,-35.6167,174.5,63.0,90,98,6.8
645,Mount Vernon,5127835,40.9126,-73.8371,45.9,29,75,23.02
646,Puerto Ayora,3652764,-0.7393,-90.3518,80.26,74,20,19.57
647,Qaanaaq,3831208,77.484,-69.3632,13.57,81,79,8.14
648,Atambua,1651103,-9.1061,124.8925,73.96,81,42,2.33
649,Atuona,4020109,-9.8,-139.0333,80.82,76,49,19.53
650,Lavrentiya,4031637,65.5833,-171.0,33.8,71,92,1.92
651,Yangi Marg`ilon,1513491,40.4272,71.7189,46.22,76,0,1.68
652,Hobart,2163355,-42.8794,147.3294,53.42,47,75,10.36
653,Tuktoyaktuk,6170031,69.4541,-133.0374,12.2,73,20,9.22
654,Korla,1529376,41.7597,86.1469,43.16,46,100,18.39
655,Çermik,318766,38.1361,39.4493,55.4,44,0,10.36
656,Uvalde,4738723,29.3669,-99.767,65.97,68,90,10.36
657,Auki,2109701,-8.7676,160.7034,85.01,66,83,2.06
658,Mataura,6201424,-46.1927,168.8643,54.0,89,98,5.99
659,Kavieng,2094342,-2.5744,150.7967,82.27,74,92,7.31
660,Meulaboh,1214488,4.1363,96.1285,76.05,89,90,2.93
661,Tiksi,2015306,71.6872,128.8694,13.23,86,100,4.43
662,Lüderitz,3355672,-26.6481,15.1594,64.85,71,1,7.02
663,Bredasdorp,1015776,-34.5322,20.0403,62.08,92,1,1.88
664,Gazojak,1514792,41.1875,61.4036,56.03,25,94,11.77
665,Talara,3691582,-4.5772,-81.2719,70.65,82,72,17.31
666,Båtsfjord,780717,70.6345,29.7185,33.8,75,75,4.61
667,Farafangana,1065158,-22.8167,47.8333,70.92,86,45,2.93
668,Lewisporte,6053446,49.2499,-55.0482,46.42,71,90,24.16
669,Ushuaia,3833367,-54.8,-68.3,42.8,87,75,11.5
670,Naze,1855540,28.3667,129.4833,69.8,83,75,18.41
671,Busselton,2075265,-33.65,115.3333,55.08,84,82,1.99
672,Albany,5106841,42.6001,-73.9662,40.33,37,82,1.01
673,Barrow,5880054,71.2906,-156.7887,19.4,79,1,8.05
674,Ostrovnoy,556268,68.0531,39.5131,33.6,93,100,9.86
675,Fare,4034496,-16.7,-151.0167,81.03,73,4,13.69
676,Butaritari,2110227,3.0707,172.7902,82.72,74,58,10.4
677,Iqaluit,5983720,63.7506,-68.5145,21.09,86,90,3.44
678,Talnakh,1490256,69.4865,88.3972,30.9,96,100,13.13
679,Mokhsogollokh,2019867,61.4681,128.9203,21.22,78,46,7.74
680,Vanimo,2084442,-2.6741,141.3028,82.17,72,100,1.45
681,Surgut,1490624,61.25,73.4167,33.8,55,0,11.18
682,George Town,1735106,5.4112,100.3354,75.7,88,40,13.8
683,Tual,1623197,-5.6667,132.75,84.18,71,71,9.22
684,Bengkulu,1649150,-3.8004,102.2655,73.44,87,86,3.83
685,New Norfolk,2155415,-42.7826,147.0587,49.39,64,60,4.0
686,Rikitea,4030556,-23.1203,-134.9692,77.9,75,85,15.3
687,Leningradskiy,2123814,69.3833,178.4167,34.56,81,92,1.1
688,Havre-St-Pierre,5972291,50.2334,-63.5986,37.4,100,90,19.57
689,Murgab,1218612,37.4966,61.9714,55.4,50,6,6.91
690,Humaitá,3664078,-7.5061,-63.0208,78.39,86,98,1.9
691,Northam,2641434,51.0333,-4.2167,44.38,71,0,5.99
692,Mount Gambier,2156643,-37.8333,140.7667,51.8,93,90,5.75
693,Sabha,2212775,27.0377,14.4283,81.54,15,100,21.79
694,Hopelchén,3527065,19.7667,-89.85,86.0,74,20,12.66
695,Mushie,2312249,-3.0167,16.9,75.15,82,41,3.33
696,Pemba,1028918,-12.974,40.5178,78.8,89,40,13.8
698,Bilma,2446796,18.6853,12.9164,87.73,12,0,6.35
699,Port Alfred,964432,-33.5906,26.891,67.6,82,58,19.44
700,Andenes,3163146,69.3143,16.1194,33.49,60,20,16.11
701,Murchison,2186377,-41.8,172.3333,55.33,85,100,1.61
702,Yumen,1528998,40.2833,97.2,46.44,26,72,8.34
703,Esperance,2071860,-33.8667,121.9,53.6,94,99,10.36
704,Masumbwe,154654,-3.6333,32.1833,63.61,93,29,1.86
705,Saldanha,3361934,-33.0117,17.9442,59.05,90,0,5.88
706,Ţahţā,347634,26.7693,31.5021,78.89,21,0,9.22
707,Longyearbyen,2729907,78.2186,15.6401,17.6,62,75,2.44
708,Pisco,3932145,-13.7,-76.2167,69.89,73,0,23.02
709,Gwadar,1177446,25.1216,62.3254,80.8,79,19,11.27
710,Saskylakh,2017155,71.9167,114.0833,5.58,96,100,5.73
711,Hermanus,3366880,-34.4187,19.2345,61.0,83,0,3.0
712,Bathsheba,3374083,13.2167,-59.5167,80.6,61,40,19.57
713,Guadix,2516925,37.2993,-3.1392,48.34,72,63,1.01
714,Ribeira Grande,3372707,38.5167,-28.7,57.13,76,50,37.49
715,Jamestown,5122534,42.097,-79.2353,32.92,93,90,18.41
716,Constitución,3893726,-35.3333,-72.4167,55.04,85,90,11.92
717,Nikolskoye,546105,59.7035,30.7861,44.53,87,90,5.93
718,East London,1006984,-33.0153,27.9116,67.62,80,98,11.3
719,Pathein,1328421,16.7833,94.7333,80.29,75,19,9.24
720,Katobu,1640972,-4.9408,122.5276,76.21,90,25,0.74
721,Nowogard,3090558,53.6744,15.1163,39.07,87,0,8.05
722,Chui,3443061,-33.6971,-53.4616,65.5,80,8,12.03
723,Tasiilaq,3424607,65.6145,-37.6368,28.4,59,90,14.97
724,Santiago de Cao,3692073,-7.9589,-79.2392,66.2,88,40,13.8
725,Saint Paul Harbor,5866583,57.79,-152.4072,42.8,87,90,12.66
726,Pañgobilian,1695250,8.8011,117.8594,80.08,80,100,3.27
727,Hilo,5855927,19.7297,-155.09,77.4,54,90,11.5
728,Avarua,4035715,-21.2078,-159.775,82.4,78,40,24.16
729,Santa Marta,3668605,11.2408,-74.199,90.0,59,47,1.99
730,Colac,2171069,-38.3333,143.5833,48.99,98,100,7.76
731,Lorengau,2092164,-2.0226,147.2712,82.53,77,100,2.42
732,Olinda,3393536,-8.0089,-34.8553,80.6,74,40,6.91
733,Airai,1651810,-8.9266,125.4092,62.85,78,29,1.9
734,Bingöl,321082,38.8847,40.4939,51.71,56,1,5.46
735,Joshīmath,1268814,30.5667,79.5667,45.86,88,91,6.8
736,Cayenne,3382160,4.9333,-52.3333,78.17,94,90,6.91
737,Chokurdakh,2126123,70.6333,147.9167,0.91,95,95,6.08
738,Lagoa,3372964,39.05,-27.9833,56.21,78,39,41.63
739,Guadalupe y Calvo,4005370,26.1,-106.9667,62.04,12,25,12.62
740,Mocuba,1024312,-16.8392,36.9856,64.54,96,32,2.89
741,Kaa-Khem,1505187,51.6833,94.7333,32.79,53,100,3.94
742,Clyde River,5924351,70.4692,-68.5914,19.4,68,90,9.22
743,Sakakah,102527,29.9697,40.2064,82.4,15,20,5.75
744,Gold Coast,2165087,-28.0,153.4333,66.07,37,0,6.91
745,Naryan-Mar,523392,67.6713,53.087,35.74,92,100,14.05
746,Lac du Bonnet,6014443,50.2536,-96.0612,66.99,19,17,5.99
747,Shingū,1847947,33.7333,135.9833,60.53,83,89,10.74
748,Ha Giang,1581349,22.8333,104.9833,76.62,98,82,3.04
749,Kisangani,212730,0.5167,25.2,70.12,97,100,2.86
750,Datong,2037799,40.0936,113.2914,55.02,63,71,5.61
751,Adrar,2381972,20.5022,-10.0711,78.98,12,0,11.54
752,Castro,3466704,-24.7911,-50.0119,58.05,84,98,3.58
753,Askiz,1511304,53.1319,90.5264,29.68,71,88,4.81
754,Nanortalik,3421765,60.1432,-45.2371,35.76,81,57,3.78
755,Tabas,113659,33.5959,56.9244,76.89,22,3,3.62
756,Touros,3386213,-5.1989,-35.4608,80.6,78,40,6.91
757,Vaini,4032243,-21.2,-175.2,84.2,84,75,6.91
758,Loandjili,2258378,-4.7561,11.8578,78.8,90,92,7.52
759,Chinhoyi,893697,-17.3667,30.2,63.95,72,74,3.67
760,Baní,3512067,18.2833,-70.3333,81.82,77,17,1.99
761,Mossamedes,3347019,-15.1961,12.1522,79.14,81,41,1.79
762,Cagliliog,1681936,13.9016,123.2913,79.48,87,89,8.1
763,Katsuura,2112309,35.1333,140.3,54.93,51,6,5.99
764,Bulgan,2032201,48.8125,103.5347,22.51,90,100,7.7
765,Broome,5110365,42.2506,-75.833,34.03,86,90,17.27
766,Sikasso,2451184,10.9167,-7.0,84.43,48,79,4.41
767,Tuatapere,2180815,-46.1333,167.6833,54.0,89,99,5.99
768,Saint-Philippe,935215,-21.3585,55.7679,71.91,73,90,11.5
769,Willowmore,939676,-33.2926,23.4895,58.69,90,1,8.37
770,Limaong,1706374,7.3606,122.3664,73.4,94,40,1.14
771,Pevek,2122090,69.7008,170.3133,22.23,72,29,10.51
772,Dikson,1507390,73.5069,80.5464,27.46,93,100,23.42
773,Isla Vista,5359864,34.4133,-119.861,61.81,63,90,11.5
774,Paragominas,3393106,-2.9667,-47.4833,73.0,99,100,1.7
775,Brownsville,4676740,25.9018,-97.4975,78.17,69,90,17.27
776,Yellowknife,6185377,62.456,-114.3525,15.69,53,75,18.41
777,Quatre Cocos,1106643,-20.2078,57.7625,76.46,94,75,6.91
778,Hualmay,3939761,-11.0964,-77.6139,68.99,83,16,9.24
779,Grand Gaube,934479,-20.0064,57.6608,75.99,87,100,3.0
780,São João da Barra,3448903,-21.6403,-41.0511,71.82,74,1,16.26
781,Puri,1259184,19.8,85.85,78.8,94,75,13.82
782,Launceston,2160517,-41.45,147.1667,51.67,62,83,12.66
783,Saint-Augustin,6137462,51.226,-58.6502,40.69,90,100,27.2
784,Saint George,5546220,37.1041,-113.5841,75.33,16,1,16.11
785,San Patricio,4726521,28.017,-97.5169,71.98,83,90,16.11
786,San Policarpo,1688696,12.1791,125.5072,78.19,87,95,5.19
787,Isangel,2136825,-19.55,169.2667,82.4,78,75,8.39
788,Ambilobe,1082243,-13.2,49.05,73.2,87,95,2.42
789,Kovdor,543508,67.5662,30.4758,28.89,93,100,5.97
790,Alofi,4036284,-19.0595,-169.9187,84.2,74,75,12.66
791,Ugoofaaru,1337619,5.6667,73.0,82.27,75,24,9.62
792,Mariehamn,3041732,60.0973,19.9348,35.6,93,75,10.36
793,Pierre,5767918,44.3683,-100.351,42.03,81,90,16.11
794,Grindavik,3416888,63.8424,-22.4338,44.6,87,90,28.77
795,Provideniya,4031574,64.3833,-173.3,39.2,52,0,13.42
796,Samarinda,1629001,-0.5,117.15,73.71,95,92,2.35
797,Karratha,6620339,-20.7377,116.8463,74.19,28,0,13.29
798,Brae,2654970,60.3964,-1.353,42.8,75,90,8.05
799,Novopokrovka,699328,49.8425,36.5477,46.2,76,0,4.47
800,Jiutai,2036401,44.1525,125.8328,51.8,58,75,2.24
801,Prainha,3391287,-1.8,-53.48,75.34,93,92,4.45
802,Acaraú,3408368,-2.8856,-40.12,78.73,81,20,7.38
803,Tilichiki,2120591,60.4667,166.1,26.31,81,57,3.94
804,Poum,2138555,-20.2333,164.0167,78.33,77,70,10.13
805,Tautira,4033557,-17.7333,-149.15,84.09,65,20,8.05
806,Eyl,60019,7.9803,49.8164,82.85,72,98,8.05
807,Forsytheganj,10722858,52.6333,29.7333,43.9,91,98,8.86
808,Barra Patuca,3614835,15.8,-84.2833,81.07,71,6,10.74
809,Gouyave,3580279,12.1646,-61.7296,82.4,74,20,24.16
810,Hasaki,2112802,35.7333,140.8333,53.53,62,20,13.8
811,Makakilo City,5850554,21.3469,-158.0858,82.56,51,75,13.8
812,Padang,1633419,-0.9492,100.3543,75.2,94,40,2.3
813,Sisimiut,3419842,66.9395,-53.6735,30.11,75,61,6.91
814,Ayagoz,1525988,47.9714,80.4392,24.01,71,13,10.42
815,Hithadhoo,1282256,-0.6,73.0833,82.58,74,42,8.12
816,Cherskiy,2126199,68.75,161.3,18.34,90,100,10.36
817,Kodino,546742,63.7198,39.6447,36.99,85,92,5.55
818,Nieves,1697696,15.3274,120.9485,78.8,83,75,2.3
819,Fairbanks,5861897,64.8378,-147.7164,53.28,25,1,9.22
820,Dicabisagan,1715015,17.0818,122.4157,77.2,78,95,3.09
821,Marand,124862,38.4329,45.7749,59.0,58,75,4.61
822,Bonthe,2409914,7.5264,-12.505,81.19,82,63,7.47
823,Hervey Bay,2146219,-25.2986,152.8535,70.0,54,93,3.0
824,Kaminskiy,553374,57.1516,41.4732,40.39,91,44,8.84
825,Mandurah,2067119,-32.55,115.7,62.53,72,99,8.05
826,Thompson,6165406,55.7435,-97.8558,21.2,68,75,18.41
827,Keti Bandar,1174451,24.1447,67.4497,80.91,77,0,17.81
828,Kiruna,605155,67.8557,20.2251,24.8,80,26,6.91
829,La Tuque,6050416,47.4334,-72.7824,30.2,51,100,14.97
830,Deputatsky,2028164,69.3,139.9,4.82,94,94,2.15
831,Vao,2137773,-22.6667,167.4833,74.26,73,32,5.61
832,Ituiutaba,3460523,-18.9689,-49.465,70.99,40,0,5.48
833,Geraldton,2070998,-28.7667,114.6,62.6,77,100,6.91
834,Owando,2255542,-0.4819,15.8999,74.16,88,80,1.97
835,Buenaventura,3688451,3.8801,-77.0312,77.58,90,81,2.55
836,Port Hedland,2063042,-20.3167,118.5667,62.6,39,0,9.22
837,Banes,3567869,20.9625,-75.7186,86.0,48,20,16.11
838,Kruisfontein,986717,-34.0033,24.7314,66.0,83,4,5.01
839,Pļaviņas,456635,56.6178,25.7255,36.5,87,71,10.4
840,Moranbah,6533368,-22.0016,148.0466,68.72,86,100,9.26
841,Puerto Carreño,3671519,6.189,-67.4859,87.42,51,63,7.43
842,Beringovskiy,2126710,63.05,179.3167,26.11,72,59,7.92
843,Souillac,933995,-20.5167,57.5167,77.0,94,75,6.91
844,Cuamba,1047660,-14.8031,36.5372,64.9,97,30,3.98
845,Khangarh,1174211,29.9173,71.1618,71.6,53,40,34.52
846,Young,3439525,-32.6833,-57.6333,73.99,77,100,5.39
847,Mweka,207596,-4.85,21.5667,69.66,94,15,1.79
848,Cidreira,3466165,-30.1811,-50.2056,69.85,72,1,16.51
849,Grajaú,3398856,-5.8194,-46.1386,75.2,91,78,2.04
850,Aswān,359792,24.0934,32.907,85.44,17,41,10.92
851,Tutóia,3385899,-2.7619,-42.2744,79.18,80,85,6.17
852,Coquimbo,3893629,-29.9533,-71.3436,59.0,82,75,6.91
853,Slave Lake,6149374,55.2834,-114.769,33.8,40,1,8.05
854,Lillooet,6945979,50.6856,-121.942,58.44,16,1,11.5
855,Vega de Alatorre,3514843,20.0333,-96.6333,80.06,77,100,11.18
856,Champasak,1657818,14.75,106.0,73.0,98,97,2.26
857,Kiryat Gat,293842,31.61,34.7642,60.69,73,0,5.01
858,Itambacuri,3460817,-18.0311,-41.685,70.9,76,33,3.51
859,Saint-Joseph,6690296,-21.3667,55.6167,72.01,73,90,11.5
860,Lompoc,5367788,34.6391,-120.4579,53.91,71,52,11.5
861,Booué,2401495,-0.0921,11.9385,74.28,96,100,6.2
862,Tahe,2034615,52.3333,124.7333,31.08,37,80,10.85
863,Arlit,2447513,18.7369,7.3853,87.1,6,47,9.17
864,Manadhoo,1337618,5.7667,73.3833,82.29,75,31,9.33
865,Okhotsk,2122605,59.3833,143.3,29.97,96,100,8.95
866,Coyhaique,3894426,-45.5752,-72.0662,48.2,81,75,5.75
867,Yei,363619,4.095,30.6779,67.53,84,97,5.19
868,Innisfail,2162683,-17.5333,146.0333,72.3,96,100,6.35
869,Mehamn,778707,71.0357,27.8492,32.16,75,99,3.44
870,Ancud,3899695,-41.8697,-73.8203,47.89,100,75,8.05
871,Aripuanã,3665202,-9.1667,-60.6333,73.18,96,50,0.81
872,Bowen,2174444,-20.0167,148.2333,71.6,83,90,5.75
873,São Gabriel da Cachoeira,3662342,-0.1303,-67.0892,74.68,97,100,1.43
874,Santana do Acaraú,3389387,-3.4606,-40.2122,74.37,95,49,3.15
875,Kahului,5847411,20.8947,-156.47,79.07,48,40,21.85
876,Kutum,371745,14.2,24.6667,77.45,18,26,10.67
877,Waipawa,2206874,-41.4122,175.5153,62.37,72,40,18.41
878,Taoudenni,2450173,22.6783,-3.9836,90.59,8,0,6.49
879,Ullapool,2635199,57.8987,-5.1604,46.0,68,94,3.96
880,Okha,2122614,53.5739,142.9478,35.69,95,100,15.08
881,Caravelas,3466980,-17.7125,-39.2481,73.27,88,95,4.25
882,Yerbogachën,2012956,61.2767,108.0108,26.58,89,100,12.41
883,Norman Wells,6089245,65.282,-126.8329,26.6,63,75,11.5
884,Zhezkazgan,1516589,47.8043,67.7144,37.51,41,76,12.44
885,Kochi,1273874,9.9399,76.2602,80.19,80,91,3.44
886,Sinegor'ye,2121197,62.0788,150.477,24.51,93,100,0.87
887,Klaksvík,2618795,62.2266,-6.589,41.0,87,90,5.86
888,Vila Velha,3445026,-20.3297,-40.2925,77.0,73,75,9.22
889,Plettenberg Bay,964712,-34.0527,23.3716,65.66,78,1,6.73
890,Virginia Beach,4791259,36.8529,-75.978,55.04,30,75,12.66
891,Doumé,2232497,4.2333,13.45,68.54,97,100,5.73
892,Myitkyina,1307741,25.3833,97.4,71.37,53,1,1.32
893,Khatanga,2022572,71.9667,102.5,28.08,96,99,12.53
894,Nouadhibou,2377457,20.931,-17.0347,64.4,88,0,16.11
895,Liyang,1553356,29.7057,118.2862,65.3,94,99,2.75
896,San Buenaventura,3987500,27.0833,-101.5333,79.72,53,75,10.29
897,Sabang,1214026,5.8933,95.3214,83.05,72,95,14.74
898,Oyama,1853483,36.3,139.8,53.8,66,20,4.61
899,Muros,3115824,42.7762,-9.0603,52.12,88,85,5.91
900,Vancouver,6173331,49.2497,-123.1193,62.22,67,20,8.05
901,Benguela,3351663,-12.5763,13.4055,80.13,85,100,4.21
902,Jishou,1805270,28.3167,109.7167,64.62,93,100,4.92
903,Salalah,286621,17.0151,54.0924,80.6,74,0,2.3
904,Broken Hill,2173911,-31.95,141.4333,50.0,71,0,7.63
905,Talcahuano,3870282,-36.7167,-73.1167,57.2,77,0,9.22
906,Kavaratti,1267390,10.5669,72.642,83.28,69,73,7.56
907,Atbasar,1526038,51.8,68.3333,33.96,63,96,8.7
908,Heiligenhafen,2907589,54.3667,10.9833,41.0,81,14,5.99
909,Nemuro,2128975,43.3236,145.575,36.03,86,93,14.88
910,Kiliya,705883,45.4552,29.2637,48.09,81,75,3.44
911,Richards Bay,962367,-28.783,32.0377,67.59,88,90,7.4
912,Teeli,1489828,51.0333,90.2333,26.49,75,96,0.34
913,Petlāwad,1259840,23.0,74.8,79.75,27,62,7.74
914,Aitape,2101169,-3.1374,142.3475,81.61,77,100,2.15
915,Diego de Almagro,3892454,-26.3667,-70.05,61.05,55,0,5.21
916,Biak,1637001,-0.9131,122.8766,77.56,81,100,4.25
917,Nakamura,1855891,32.9833,132.9333,64.09,53,100,2.71
918,La Ronge,6050066,55.1001,-105.2842,27.5,43,99,16.11
919,Darnah,87205,32.767,22.6367,62.19,62,100,11.63
920,Palmer,4946620,42.1584,-72.3287,40.06,31,75,24.16
921,Camacha,2270385,33.0833,-16.3333,68.0,83,20,2.3
922,Rohnert Park,5388564,38.3396,-122.7011,59.16,67,40,8.05
923,Al Bardīyah,80509,31.7561,25.0865,61.45,73,73,8.25
924,Chunoyar,1507638,57.4467,97.3217,18.88,89,5,2.01
925,Carnarvon,2074865,-24.8667,113.6333,66.2,63,40,6.91
926,Bambanglipuro,1650434,-7.95,110.2833,73.83,84,30,4.07
927,São Filipe,3374210,14.8961,-24.4956,73.02,73,59,12.39
928,Carupano,3646382,10.6678,-63.2585,78.64,76,21,12.12
929,Mitchell,5229794,43.7094,-98.0298,53.6,43,90,13.8
930,Lykhivka,703079,48.6874,33.9228,47.01,84,26,9.84
931,Saint-Saulve,2977058,50.3714,3.5561,42.24,75,18,8.05
932,Santa Cruz de La Palma,2511180,28.6835,-17.7642,63.75,68,0,5.75
933,Tampere,634963,61.4991,23.7871,35.55,100,75,2.3
934,Haines Junction,5969025,60.7522,-137.5108,48.2,25,0,5.75
935,Kamaishi,2112444,39.2667,141.8833,48.2,49,0,16.11
936,Amahai,1651591,-3.3333,128.9167,81.25,80,85,1.9
937,San Cristobal,3628473,7.7669,-72.225,86.0,62,20,10.36
938,Port Blair,1259385,11.6667,92.75,79.7,76,69,5.46
939,Weligama,1223738,5.9667,80.4167,77.95,88,31,8.12
940,Katangli,2122783,51.7102,143.2326,41.47,81,83,8.93
941,Ucluelet,6171633,48.9329,-125.5528,55.4,76,1,8.05
942,Cuervos,3979546,32.6314,-114.8556,80.74,22,1,10.36
943,Necochea,3430443,-38.5473,-58.7368,61.0,91,100,1.99
944,Southbridge,4951594,42.0751,-72.0334,38.68,33,46,4.0
945,Kamień Pomorski,3096765,53.9685,14.7726,39.92,87,0,8.05
946,Bodden Town,3580733,19.2833,-81.25,83.71,65,20,10.36
947,Qaqortoq,3420846,60.7167,-46.0333,50.0,29,20,11.5
948,Marabu,1738050,4.4148,114.0089,75.11,94,20,3.44
949,Eureka,5563397,40.8021,-124.1637,55.71,71,36,8.99
950,Zaruma,3649914,-3.6833,-79.6167,86.0,62,75,5.75
951,Svetlaya,2015852,46.5389,138.3297,48.94,60,44,7.99
952,Coolum Beach,2170581,-26.5333,153.1,64.81,60,48,7.07
953,Voyvozh,471308,62.892,54.9635,38.21,90,100,9.64
954,Anopino,581585,55.6981,40.6671,42.08,91,34,7.47
955,Kloulklubed,7671223,7.0419,134.2556,82.4,78,75,5.75
956,Salinópolis,3389822,-0.6136,-47.3561,77.27,86,100,7.38
957,Mahon,2514301,39.8885,4.2658,50.0,93,20,3.44
958,Yar-Sale,1486321,66.8333,70.8333,33.04,87,69,14.92
959,Waingapu,1622318,-9.6567,120.2641,75.4,78,26,4.79
960,Pergamino,3841490,-33.89,-60.5736,69.48,80,100,1.99
961,High Level,5975004,58.5169,-117.136,35.6,35,75,17.27
962,Ivanovka,1528252,42.8878,75.085,35.6,93,1,6.71
963,Kaeo,2189343,-35.1,173.7833,63.0,90,100,6.8
964,Chateaubelair,3577933,13.2833,-61.25,80.6,74,20,16.11
965,Zaragoza,3104324,41.6561,-0.8773,56.66,76,90,5.75
966,Sholokhove,693953,47.6945,34.0312,46.63,88,6,8.7
967,Ol'ga,2018553,43.7444,135.2892,51.6,43,100,3.24
968,Talakan,2015686,50.3167,130.3667,45.48,74,100,10.22
969,Paamiut,3421193,61.994,-49.6678,32.31,83,43,2.53
970,Mandalgovi,2030065,45.7625,106.2708,39.94,53,98,19.71
971,Kathu,1153035,7.9178,98.3332,84.22,89,20,5.75
972,Ponta do Sol,2264557,32.6667,-17.1,61.88,90,86,5.01
973,Raja,368246,8.4596,25.678,81.1,53,87,7.83
974,Bajil,77408,15.0584,43.2851,86.56,42,13,4.85
975,Saint-Pierre,935214,-21.3393,55.4781,72.81,73,90,11.5
976,College,5859699,64.8569,-147.8028,53.19,28,1,9.22
977,Benjamin Constant,3665016,-4.3831,-70.0311,86.86,70,20,3.44
978,Fukuechō,1863997,32.6881,128.8419,65.73,71,100,4.03
979,Esna,355449,25.2934,32.554,82.4,26,0,3.44
980,Tocopilla,3869716,-22.092,-70.1979,66.52,76,15,6.71
981,Garissa,197745,-0.4536,39.6401,78.96,78,98,12.62
982,Whitianga,2179103,-36.8333,175.7,64.89,60,96,2.95
983,San Jose,5392171,37.3394,-121.895,66.43,52,20,16.11
984,Yulara,6355222,-25.2406,130.9889,55.4,67,0,6.91
985,Zaria,2317765,11.1113,7.7227,81.3,48,87,7.67
986,Torbay,6167817,47.6666,-52.7314,41.49,93,90,23.02
987,Charter Township of Clinton,4989133,42.587,-82.9199,48.54,37,96,3.0
988,Ati,2436400,13.2154,18.3353,87.76,27,12,9.57
989,Ilhabela,3461425,-23.7781,-45.3581,69.21,85,37,6.46
990,Walvis Bay,3359638,-22.9575,14.5053,65.19,68,3,5.75
991,Bonavista,5905393,48.6499,-53.1147,44.47,76,100,8.05
992,Petauke,899825,-14.2426,31.3253,61.93,80,4,6.73
993,Balyqshy,610445,47.0667,51.8667,53.6,62,75,11.18
994,La Asuncion,3480908,11.0333,-63.8628,93.2,43,19,23.02
995,Yaan,2338660,7.3833,8.5667,82.83,68,51,9.91
996,Vadsø,777073,70.0744,29.7487,33.12,75,75,4.61
997,Ararat,174991,39.8317,44.7049,55.4,44,34,4.61
998,Aban,1512218,56.67,96.06,23.36,85,8,5.61
999,Uíge,2236568,-7.6087,15.0613,66.76,93,63,2.46
1000,Laje,3459088,-10.1833,-40.9667,71.58,89,84,5.97
1001,Toppenish,5813747,46.3774,-120.3087,73.24,19,40,3.44
1002,Pangkalanbuun,1632694,-2.6833,111.6167,74.7,89,61,0.98
1003,Codrington,2171099,-38.2667,141.9667,56.01,72,100,11.86
1004,Nelson Bay,2155562,-32.7167,152.15,57.42,50,0,19.57
1005,Paso de Carrasco,3441292,-34.8603,-56.0522,71.74,64,0,8.05
1006,Marihatag,1700933,8.7936,126.2969,78.44,87,85,4.94
1007,Iquitos,3696183,-3.7481,-73.2472,87.8,70,40,4.61
1008,Nampula,1033356,-15.1165,39.2666,66.34,98,33,6.22
1009,Mapiri,3910758,-15.25,-68.1667,70.57,97,69,0.85
1010,Zonguldak,737021,41.25,31.8333,42.71,82,27,4.9
1011,Mineiros,3457147,-17.5694,-52.5511,67.1,51,0,1.88
1012,Laas,3175096,46.6166,10.7002,43.11,70,0,4.61
1013,Verāval,1253237,20.9,70.3667,78.91,80,92,9.62
1014,Birjand,140463,32.8663,59.2211,55.4,38,0,6.91
1015,Sfântu Gheorghe,667303,45.8667,25.7833,43.5,78,97,3.33
1016,Orlik,1496073,52.5178,99.825,17.65,83,100,2.44
1017,Hamilton,4513583,39.1834,-84.5333,51.33,32,1,12.66
1018,Santa Isabel Rio Negro,3662489,-0.4139,-65.0192,75.69,95,86,2.26
1019,Olyka,698502,50.7186,25.8125,41.0,81,85,5.99
1020,Dongsheng,1812256,39.8161,109.9776,51.06,71,97,13.13
1021,Tegul'det,1489822,57.3064,88.1667,21.42,98,18,3.58
1022,Poso,1630723,-1.3959,120.7524,82.99,76,98,3.69
1023,Lumby,6061958,50.2498,-118.969,56.48,35,99,5.75
1024,Lircay,3928317,-12.9896,-74.7205,43.75,97,94,3.67
1025,Bria,239899,6.5423,21.9863,73.36,76,89,1.74
1026,Basse,3221033,52.5518,9.5069,40.39,75,9,10.36
1027,Bubaque,2374583,11.2833,-15.8333,78.78,67,67,17.07
1028,Marsabit,187585,2.3284,37.9899,65.93,80,100,12.39
1029,Xichang,1789647,27.8964,102.2634,60.1,52,16,1.28
1030,Tonota,933000,-21.4833,27.4833,58.75,54,23,5.01
1031,Pemangkat,1631637,1.1667,108.9667,78.15,85,70,6.35
1032,Azuaga,2521436,38.2667,-5.6833,55.0,70,70,1.01
1033,Gobabis,3357247,-22.45,18.9667,60.3,39,92,9.01
1034,Beisfjord,3144987,68.3751,17.5988,30.2,93,20,3.69
1035,Kitimat,5993072,54.0524,-128.6534,64.0,35,83,1.66
1036,Yichang,1786764,30.7144,111.2847,63.9,94,100,3.74
1037,Yining,1786538,29.0361,114.5636,64.92,92,90,2.21
1038,Ortigueira,3455777,-24.2083,-50.9494,58.15,82,44,3.27
1039,Saurimo,145531,-9.6608,20.3916,66.27,89,90,3.62
1040,Kudahuvadhoo,1337607,2.6708,72.8944,82.58,70,91,11.16
1041,Usinsk,863061,65.9939,57.5281,37.54,94,100,20.38
1042,Mulegé,3995236,26.8833,-111.9833,80.15,29,76,6.89
1043,Nara,1855612,34.6851,135.8049,56.46,51,0,9.22
1044,Karaton,1630058,-6.3424,106.1045,75.2,83,20,8.05
1045,Māngrol,1263752,21.1167,70.1167,78.98,80,99,9.44
1046,Cabedelo,3404558,-6.9811,-34.8339,78.8,100,0,6.91
1047,Pacific Grove,5380437,36.6177,-121.9166,53.73,67,90,12.66
1048,Nome,5870133,64.5011,-165.4064,44.6,49,1,8.05
1049,‘Ewa Beach,5855051,21.3156,-158.0072,83.14,51,75,13.8
1050,Hay River,5972762,60.8156,-115.7999,23.0,74,100,11.5
1051,Sulangan,1685422,11.1373,123.7228,81.91,77,99,10.78
1052,San Luis,3837056,-33.295,-66.3356,60.06,83,96,8.37
1053,Malanje,2239862,-9.5402,16.341,63.64,94,96,3.22
1054,Aykhal,2027296,66.0,111.5,22.6,93,99,26.11
1055,Princeton,4169345,25.5384,-80.4089,80.26,69,1,8.05
1056,Dunedin,2191562,-45.8742,170.5036,64.99,64,99,1.01
1057,Valle Hermoso,3514868,25.6667,-97.8333,78.53,83,90,19.57
1058,Ulladulla,2145554,-35.35,150.4667,57.6,54,0,11.5
1059,Ereymentau,1524302,51.6199,73.1033,29.77,55,0,4.36
1060,Herat Province,1140025,34.5,62.0,52.81,21,6,8.63
1061,Nerchinskiy Zavod,2019323,51.3088,119.61,30.96,36,73,14.41
1062,Severo-Kuril'sk,2121385,50.6789,156.125,35.71,93,69,3.11
1063,Ağdaş,587378,40.65,47.4761,53.6,94,75,8.05
1064,Bethel,5282297,41.3712,-73.414,42.17,43,86,4.0
1065,Ambon City,1651531,-3.6954,128.1814,78.8,94,40,6.91
1066,Ternate,1624041,0.8,127.4,82.49,75,89,2.33
1067,Dingle,1714733,10.9995,122.6711,80.73,77,89,8.81
1068,Zhangye,1785036,38.9342,100.4517,56.55,42,4,11.23
1069,Najrān,103630,17.4924,44.1277,71.6,20,0,2.3
1070,Hauterive,3013748,46.0901,3.4459,47.89,71,0,2.3
1071,Port-Gentil,2396518,-0.7193,8.7815,77.58,86,100,13.51
1072,Shima,1795166,24.4478,117.8111,73.4,88,75,2.24
1073,Kamina,214614,-8.7386,24.9906,64.11,95,91,2.42
1074,Petropavlovsk-Kamchatskiy,2122104,53.0452,158.6483,41.0,65,67,2.24
1075,São Miguel do Araguaia,3448455,-13.275,-50.1628,74.95,71,78,2.51
1076,Salta,3838233,-24.7859,-65.4117,66.29,73,40,4.61
1077,Kiamba,1708903,5.9894,124.6242,81.09,76,34,1.54
1078,Urengoy,1488414,65.9667,78.3667,27.73,85,91,14.9
1079,Princes Town,3573882,10.2667,-61.3833,81.07,65,20,11.5
1080,Pitiquito,3992405,30.7,-112.0833,79.0,24,61,7.0
1081,Guanhães,3461958,-18.775,-42.9325,67.01,74,60,3.38
1082,Saint-François,2980080,46.4154,3.9054,48.18,66,0,5.75
1083,Gamba,2400547,-2.65,10.0,74.21,91,100,4.9
1084,Port Macquarie,2152659,-31.4333,152.9167,59.43,57,0,3.0
1085,Pingxiang,1798654,27.6167,113.85,67.21,92,58,2.04
1086,Abnūb,362973,27.2696,31.1511,77.0,29,0,11.5
1087,Srednekolymsk,2121025,67.45,153.6833,14.56,84,96,4.27
1088,Kumul,1529484,42.8,93.45,45.34,32,99,9.89
1089,Fort Smith,4111410,35.3859,-94.3986,62.35,31,90,5.75
1090,Petatlán,3992842,17.5167,-101.2667,87.8,51,40,5.75
1091,Ambulu,1621313,-8.345,113.6058,72.46,85,55,3.53
1092,Mīnāb,123941,27.1467,57.0801,77.0,73,30,4.61
1093,Itinga,3460563,-16.6131,-41.7653,73.08,73,42,3.51
1094,Ust'-Abakan,1488272,53.8525,91.3742,26.6,59,0,6.71
1095,Hofn,2630299,64.2539,-15.2082,38.23,79,100,4.68
1096,Tateyama,1850523,34.9833,139.8667,57.0,52,8,13.35
1097,Samaná,3492997,19.2056,-69.3369,80.6,78,75,13.8
1098,Posevnaya,1500532,54.3006,83.3297,26.06,93,6,9.01
1099,Bathurst,2176632,-33.4166,149.5806,46.99,63,4,1.01
1100,Atar,2381334,20.5169,-13.0499,80.85,12,0,6.73
1101,Nyurba,2018735,63.2842,118.3319,26.62,93,100,12.73
1102,Waxahachie,4740328,32.3865,-96.8483,62.01,46,100,5.99
1103,Nõo,589933,58.2756,26.5375,38.5,81,74,10.36
1104,Thinadhoo,1337610,0.5333,72.9333,82.78,64,64,9.55
1105,Kupang,2057087,-10.1667,123.5833,77.02,82,6,3.96
1106,Leiyang,1804208,26.4024,112.8591,66.76,93,31,1.39
1107,Kamenka,553766,51.3223,42.7678,43.0,86,73,4.7
1108,Gladstone,2165478,-23.85,151.25,68.0,56,90,6.91
1109,Bambous Virieux,1106677,-20.3428,57.7575,76.53,94,75,6.91
1110,Yangambi,203717,0.8102,24.4336,70.92,93,94,3.33
1111,Conde,3385077,-7.2597,-34.9075,78.8,100,0,6.91
1112,Tongliao,2034400,43.6125,122.2653,49.64,91,100,8.37
1113,Potiskum,2324767,11.7091,11.0694,85.05,10,74,7.23
1114,Vila Franca do Campo,3372472,37.7167,-25.4333,59.0,77,40,31.07
1115,Zomba,923295,-15.386,35.3188,59.9,96,19,2.3
1116,Taungdwingyi,1294041,20.0167,95.55,81.59,61,3,6.91
1117,Yantzaza,3650053,-3.8278,-78.7594,71.33,96,53,0.96
1118,Mogadishu,53654,2.0371,45.3438,82.06,78,94,9.46
1119,Honningsvåg,779554,70.9821,25.9704,35.47,61,96,12.93
1120,Alice Springs,2077895,-23.7,133.8833,53.6,62,0,2.3
1121,Requena,2511930,39.4883,-1.1004,55.67,84,99,6.22
1122,Khor,2022317,47.8861,134.9464,57.51,32,100,7.78
1123,Ban Dung,1619650,17.699,103.2596,79.0,89,100,6.02
1124,Lima,3936456,-12.0432,-77.0282,66.18,88,90,12.66
1125,Biltine,244878,14.5333,20.9167,86.36,16,42,6.38
1126,Hobyo,57000,5.3505,48.5268,83.53,71,77,11.59
1127,Almaznyy,582447,48.0448,40.045,50.0,87,20,6.71
1128,Kirakira,2178753,-10.4544,161.9205,84.96,70,100,6.44
1129,Panguna,2088659,-6.3164,155.4848,70.23,95,100,1.97
1130,Kuril'sk,2123979,45.2333,147.8833,34.11,91,75,9.35
1131,Takaka,2181997,-40.85,172.8,62.01,83,100,5.99
1132,Belaya Gora,2126785,68.5333,146.4167,12.94,81,61,4.21
1133,Sisa,3692464,-6.6167,-76.6915,89.6,51,20,4.61
1134,Itarema,3393692,-2.9248,-39.9167,78.3,81,20,6.6
1135,Jaguaruana,3397665,-4.8339,-37.7811,76.06,88,43,4.29
1136,Half Moon Bay,5354943,37.4636,-122.4286,55.62,93,75,8.05
1137,Blagoyevo,576093,63.3667,47.9167,39.97,95,88,8.97
1138,Sørland,3137469,67.667,12.6934,36.95,51,93,20.02
1139,Mudgere,1262658,13.1333,75.6333,66.31,88,100,2.71
1140,Fort Morgan,5577158,40.2503,-103.8,59.0,25,90,5.75
1141,Sonoma,5397100,38.55,-122.9011,58.28,67,40,11.5
1142,Santo André,3449701,-23.6639,-46.5383,60.76,82,20,10.36
1143,Koslan,544084,63.4564,48.8989,39.16,96,98,10.98
1144,Port Lincoln,2063036,-34.7333,135.8667,61.18,66,90,8.3
1145,Ambrolauri,615776,42.5211,43.1622,50.0,93,90,2.3
1146,Banda Aceh,1215502,5.5577,95.3222,80.02,80,94,10.2
1147,Ixtapa,4004293,20.7,-105.2,81.7,61,75,10.36
1148,Zhigansk,2012530,66.7697,123.3711,21.2,93,100,12.48
1149,Bakaly,579728,55.1789,53.8028,38.41,94,100,9.71
1150,Tura,1254046,25.5198,90.2201,69.48,66,46,1.92
1151,Sarrebourg,2975967,48.7333,7.05,42.87,56,0,6.91
1152,Russell,4047434,32.3502,-85.1999,65.93,21,1,6.91
1153,Inongo,2315417,-1.95,18.2667,75.83,79,44,2.13
1154,Aklavik,5882953,68.2191,-135.0107,26.6,54,20,5.75
1155,Makariv,702337,50.4641,29.8113,48.07,100,75,6.33
1156,Kaniama,214389,-7.5667,24.1833,67.48,94,76,4.54
1157,Inverness,2646088,57.4791,-4.224,39.06,93,71,2.3
1158,Athabasca,5887916,54.7169,-113.2854,32.85,43,81,9.22
1159,Dod Ballāpur,1272473,13.2919,77.5431,71.6,94,40,2.3
1160,Cairns,2172797,-16.9167,145.7667,77.0,88,90,9.22
1161,Birao,240210,10.2849,22.7882,84.52,24,76,3.2
1162,Kenora,5991056,49.8167,-94.4337,64.4,17,20,16.11
1163,Lumphat,1830377,13.4878,106.9816,74.01,95,84,2.21
1164,Luau,876177,-10.7073,22.2247,65.07,90,71,2.51
1165,Havelock,4470244,34.8791,-76.9013,58.05,26,1,13.8
1166,Riyadh,108410,24.6877,46.7219,85.33,14,0,8.05
1167,Parker,4717644,32.7668,-97.8003,60.19,58,90,10.36
1168,Jiayuguan City,1280957,39.8167,98.3,46.74,29,46,8.68
1169,Fortuna,5563839,40.5982,-124.1573,55.9,76,40,16.11
1170,Upington,945945,-28.4478,21.2561,64.4,32,0,5.75
1171,Kerman,128234,30.2832,57.0788,59.0,29,0,4.61
1172,Perth,2063523,-31.9333,115.8333,62.51,55,0,9.22
1173,Porto-Novo,2392087,6.4965,2.6036,84.2,84,40,11.5
1174,Khovd,1516048,48.0056,91.6419,30.99,35,100,3.58
1175,Vaitape,4033077,-16.5167,-151.75,81.09,73,11,14.81
1176,Ajdabiya,89113,30.7554,20.2263,73.92,21,81,12.33
1177,Makkah al Mukarramah,104515,21.4267,39.8261,84.42,37,74,4.25
1178,Evensk,2125693,61.95,159.2333,27.5,90,94,3.04
1179,Redcar,2639563,54.6166,-1.06,42.76,48,93,1.99
1180,Kobryn,627145,52.2138,24.3564,37.15,77,14,11.23
1181,Nazaré,3456366,-13.035,-39.0144,74.37,95,87,3.13
